id,name,state_id,state_code,state_name,country_id,country_code,country_name,latitude,longitude,native,type,level,parent_id,population,timezone,wikiDataId
57837,Bamboo Flat,4023,AN,Andaman and Nicobar Islands,101,IN,India,11.7,92.71667,बांस फ्लैट,city,,,7962.0,Asia/Kolkata,Q627037
133213,Nicobar,4023,AN,Andaman and Nicobar Islands,101,IN,India,7.03002,93.79028,निकोबार,city,,,36842.0,Asia/Kolkata,Q797295
133482,Port Blair,4023,AN,Andaman and Nicobar Islands,101,IN,India,11.66613,92.74635,पोर्ट ब्लेयर,adm1,,,100608.0,Asia/Kolkata,Q203476
134006,South Andaman,4023,AN,Andaman and Nicobar Islands,101,IN,India,10.75776,92.52136,दक्षिण अंडमान,city,,,238142.0,Asia/Kolkata,Q796979
57593,Addanki,4017,AP,Andhra Pradesh,101,IN,India,15.81061,79.97338,अद्दांकी,city,,,28547.0,Asia/Kolkata,Q2350169
134452,Adoni,4017,AP,Andhra Pradesh,101,IN,India,15.62788,77.27495,अदोनी,city,,,184625.0,Asia/Kolkata,Q490906
57620,Akasahebpet,4017,AP,Andhra Pradesh,101,IN,India,17.50455,82.56597,अकासाहेबपेट,city,,,1500.0,Asia/Kolkata,Q582949
57623,Akividu,4017,AP,Andhra Pradesh,101,IN,India,16.58225,81.38112,अकिविदु,city,,,40413.0,Asia/Kolkata,Q416835
57624,Akkarampalle,4017,AP,Andhra Pradesh,101,IN,India,13.65,79.42,अक्करमपल्ले,city,,,44219.0,Asia/Kolkata,Q585782
57658,Amalapuram,4017,AP,Andhra Pradesh,101,IN,India,16.57868,82.00609,अमलापुरम,city,,,53231.0,Asia/Kolkata,Q588625
57690,Amudalavalasa,4017,AP,Andhra Pradesh,101,IN,India,18.41025,83.90295,अमुदलावलसा,city,,,39799.0,Asia/Kolkata,Q582993
57693,Anakapalle,4017,AP,Andhra Pradesh,101,IN,India,17.69134,83.00395,अनकापल्ली,city,,,86519.0,Asia/Kolkata,Q589133
57698,Anantapur,4017,AP,Andhra Pradesh,101,IN,India,14.55,77.41667,अनंतपुर,city,,,,Asia/Kolkata,Q15212
57758,Atmakur,4017,AP,Andhra Pradesh,101,IN,India,15.88109,78.58704,आत्माकुर,city,,,35137.0,Asia/Kolkata,Q583995
57761,Attili,4017,AP,Andhra Pradesh,101,IN,India,16.7,81.6,अत्तिली,city,,,68196.0,Asia/Kolkata,Q4818468
57771,Avanigadda,4017,AP,Andhra Pradesh,101,IN,India,16.02148,80.91808,अवनीगड्डा,city,,,23737.0,Asia/Kolkata,Q3430115
57794,Badvel,4017,AP,Andhra Pradesh,101,IN,India,14.7451,79.06288,बडवेल,city,,,70626.0,Asia/Kolkata,Q3412838
57849,Banganapalle,4017,AP,Andhra Pradesh,101,IN,India,15.31771,78.22669,बंगानापल्ले,city,,,25325.0,Asia/Kolkata,Q1553292
58137,Bapatla,4017,AP,Andhra Pradesh,101,IN,India,15.90422,80.46743,बापतला,city,,,70777.0,Asia/Kolkata,Q633274
57939,Betamcherla,4017,AP,Andhra Pradesh,101,IN,India,15.45144,78.14797,बेताम्चेर्ला,city,,,38994.0,Asia/Kolkata,Q2442016
57971,Bhattiprolu,4017,AP,Andhra Pradesh,101,IN,India,16.1026,80.78074,भट्टीप्रोलु,city,,,18001.0,Asia/Kolkata,Q3429099
58021,Bhimavaram,4017,AP,Andhra Pradesh,101,IN,India,16.54078,81.52322,भीमावरम,city,,,146961.0,Asia/Kolkata,Q757853
58022,Bhimunipatnam,4017,AP,Andhra Pradesh,101,IN,India,17.89017,83.45203,भीमुनिपट्टनम,city,,,55082.0,Asia/Kolkata,Q2483868
58070,Bobbili,4017,AP,Andhra Pradesh,101,IN,India,18.57366,83.35925,बोब्बिली,city,,,56819.0,Asia/Kolkata,Q861841
58179,Challapalle,4017,AP,Andhra Pradesh,101,IN,India,16.11756,80.93139,चल्लापल्ले,city,,,17067.0,Asia/Kolkata,Q2340109
131514,Chemmumiahpet,4017,AP,Andhra Pradesh,101,IN,India,15.89794,79.32129,चेम्मुमियापेट,city,,,31416.0,Asia/Kolkata,Q886385
131556,Chilakalurupet,4017,AP,Andhra Pradesh,101,IN,India,16.08987,80.16705,चिलकलूरिपेट,city,,,101398.0,Asia/Kolkata,Q1105252
131563,Chinnachowk,4017,AP,Andhra Pradesh,101,IN,India,14.47516,78.8354,चिन्नाचौक,city,,,64053.0,Asia/Kolkata,Q721289
131611,Chipurupalle,4017,AP,Andhra Pradesh,101,IN,India,18.31142,83.56846,चिपुरुपल्ले,city,,,25898.0,Asia/Kolkata,Q532883
131612,Chirala,4017,AP,Andhra Pradesh,101,IN,India,15.82385,80.35219,चिराला,city,,,92942.0,Asia/Kolkata,Q1193800
131575,Chittoor,4017,AP,Andhra Pradesh,101,IN,India,13.41667,79.0,चित्तूर,city,,,160722.0,Asia/Kolkata,Q15213
131577,Chodavaram,4017,AP,Andhra Pradesh,101,IN,India,17.82884,82.93526,चोडावरम,city,,,29000.0,Asia/Kolkata,Q5103763
131627,Cuddapah,4017,AP,Andhra Pradesh,101,IN,India,14.41667,78.75,कडप्पा,city,,,,Asia/Kolkata,Q15342
131628,Cumbum,4017,AP,Andhra Pradesh,101,IN,India,15.58171,79.11059,कम्बम,city,,,22653.0,Asia/Kolkata,Q15342
131658,Darsi,4017,AP,Andhra Pradesh,101,IN,India,15.76978,79.67939,दारसी,city,,,33418.0,Asia/Kolkata,Q3298990
131727,Dharmavaram,4017,AP,Andhra Pradesh,101,IN,India,14.41435,77.72035,धर्मावरम,city,,,121874.0,Asia/Kolkata,Q1948238
131740,Dhone,4017,AP,Andhra Pradesh,101,IN,India,15.3952,77.8715,धोने,city,,,59272.0,Asia/Kolkata,Q1263568
131769,Diguvametta,4017,AP,Andhra Pradesh,101,IN,India,15.39507,78.8293,दिगुवमेट्टा,city,,,5166.0,Asia/Kolkata,Q5276378
131823,East Godavari,4017,AP,Andhra Pradesh,101,IN,India,17.83333,81.83333,पूर्वी गोदावरी,city,,,5154296.0,Asia/Kolkata,Q15338
131830,Elamanchili,4017,AP,Andhra Pradesh,101,IN,India,17.54907,82.85749,एलामंचिली,city,,,27265.0,Asia/Kolkata,Q3415001
131832,Ellore,4017,AP,Andhra Pradesh,101,IN,India,16.71311,81.10437,एलोर,adm2,,,218020.0,Asia/Kolkata,Q1003496
131836,Emmiganur,4017,AP,Andhra Pradesh,101,IN,India,15.77203,77.48345,एम्मिगानुर,city,,,95149.0,Asia/Kolkata,Q2734064
131842,Erraguntla,4017,AP,Andhra Pradesh,101,IN,India,14.63853,78.53974,एर्रागुंटला,city,,,32574.0,Asia/Kolkata,Q720903
131846,Etikoppaka,4017,AP,Andhra Pradesh,101,IN,India,17.5,82.73333,एतिकोप्पाका,city,,,12000.0,Asia/Kolkata,Q1773429
131895,Gajuwaka,4017,AP,Andhra Pradesh,101,IN,India,17.7,83.21667,गजुवाका,city,,,250423.0,Asia/Kolkata,Q1524653
131906,Ganguvada,4017,AP,Andhra Pradesh,101,IN,India,18.66667,84.11667,गंगुवाड़ा,city,,,2176.0,Asia/Kolkata,Q186141
131915,Gannavaram,4017,AP,Andhra Pradesh,101,IN,India,16.54092,80.80213,गन्नवरम,city,,,20728.0,Asia/Kolkata,Q5521417
131955,Giddalur,4017,AP,Andhra Pradesh,101,IN,India,15.37439,78.92609,गिद्दलुर,city,,,35150.0,Asia/Kolkata,Q207098
131972,Gokavaram,4017,AP,Andhra Pradesh,101,IN,India,17.25823,81.84985,गोकावरम,city,,,16389.0,Asia/Kolkata,Q5578050
131993,Gorantla,4017,AP,Andhra Pradesh,101,IN,India,13.98411,77.77224,गोरंटला,city,,,24586.0,Asia/Kolkata,Q3415057
132001,GovindapuramChilakaluripetGuntur,4017,AP,Andhra Pradesh,101,IN,India,16.15477,80.10279,गोविंदपुरम चिलकलुरिपेट गुंटूर,cities,,,3000.0,Asia/Kolkata,Q1707255
132010,Gudivada,4017,AP,Andhra Pradesh,101,IN,India,16.43547,80.99555,गुडिवाड़ा,city,,,118167.0,Asia/Kolkata,Q2350125
132012,Gudlavalleru,4017,AP,Andhra Pradesh,101,IN,India,16.35,81.05,गुद्लावेल्लेरू,city,,,10491.0,Asia/Kolkata,Q1707438
132051,Gudur,4017,AP,Andhra Pradesh,101,IN,India,14.15093,79.8521,गुडूर,city,,,74037.0,Asia/Kolkata,Q1708134
132027,Guntakal Junction,4017,AP,Andhra Pradesh,101,IN,India,15.17112,77.36244,गुंटकल जंक्शन,city,,,126270.0,Asia/Kolkata,Q586397
132028,Guntur,4017,AP,Andhra Pradesh,101,IN,India,16.29974,80.45729,गुंटूर,city,,,647508.0,Asia/Kolkata,Q3120966
132099,Hindupur,4017,AP,Andhra Pradesh,101,IN,India,13.82807,77.49143,हिन्दुपुर,city,,,151677.0,Asia/Kolkata,Q760056
132151,Ichchapuram,4017,AP,Andhra Pradesh,101,IN,India,19.11393,84.68721,इच्छापुरम,city,,,36493.0,Asia/Kolkata,Q952228
132189,Jaggayyapeta,4017,AP,Andhra Pradesh,101,IN,India,16.8938,80.09807,जग्गय्यापेटा,city,,,41180.0,Asia/Kolkata,Q5475354
132228,Jammalamadugu,4017,AP,Andhra Pradesh,101,IN,India,14.84677,78.38314,जम्मालामादुगु,city,,,46069.0,Asia/Kolkata,Q2010440
132328,Kadiri,4017,AP,Andhra Pradesh,101,IN,India,14.11168,78.15982,कादिरी,city,,,89429.0,Asia/Kolkata,Q2351757
132332,Kaikalur,4017,AP,Andhra Pradesh,101,IN,India,16.55154,81.214,कैकालुर,city,,,21292.0,Asia/Kolkata,Q2290801
132678,Kakinada,4017,AP,Andhra Pradesh,101,IN,India,16.96036,82.23809,काकीनाडा,city,,,384182.0,Asia/Kolkata,Q59018
132358,Kalyandurg,4017,AP,Andhra Pradesh,101,IN,India,14.54519,77.10552,कल्याण,city,,,32328.0,Asia/Kolkata,Q2738467
132691,Kamalapuram,4017,AP,Andhra Pradesh,101,IN,India,14.5983,78.66948,कमलापुरम,city,,,14677.0,Asia/Kolkata,Q2441455
132372,Kandukur,4017,AP,Andhra Pradesh,101,IN,India,15.21542,79.9039,कंदुकुर,city,,,57246.0,Asia/Kolkata,Q2564821
132374,Kanigiri,4017,AP,Andhra Pradesh,101,IN,India,15.40555,79.50694,कनिगिरि,city,,,25045.0,Asia/Kolkata,Q12992748
132376,Kankipadu,4017,AP,Andhra Pradesh,101,IN,India,16.4353,80.76715,कनकीपदु,city,,,14616.0,Asia/Kolkata,Q3428285
132388,Kanuru,4017,AP,Andhra Pradesh,101,IN,India,16.28584,81.25464,कनुरू,city,,,49006.0,Asia/Kolkata,Q2564832
132729,Kavali,4017,AP,Andhra Pradesh,101,IN,India,14.9163,79.99449,कवाली,city,,,90099.0,Asia/Kolkata,Q2138686
132552,Kolanukonda,4017,AP,Andhra Pradesh,101,IN,India,16.45392,80.61046,कोलानुकोंडा,city,,,1947.0,Asia/Kolkata,Q6427052
132567,Kondapalle,4017,AP,Andhra Pradesh,101,IN,India,16.61989,80.54244,कोंडापल्ले,city,,,38714.0,Asia/Kolkata,Q2234676
132584,Korukollu,4017,AP,Andhra Pradesh,101,IN,India,16.5,81.25,कोरुकोल्लू,city,,,8333.0,Asia/Kolkata,Q6432751
132590,Kosigi,4017,AP,Andhra Pradesh,101,IN,India,15.8551,77.24463,कोसिगी,city,,,15455.0,Asia/Kolkata,Q6433178
132616,Kovvur,4017,AP,Andhra Pradesh,101,IN,India,17.0162,81.72934,कोव्वुर,city,,,39667.0,Asia/Kolkata,Q2235664
132621,Krishna,4017,AP,Andhra Pradesh,101,IN,India,16.66667,81.0,कृष्ण,city,,,4517398.0,Asia/Kolkata,Q15382
132653,Kuppam,4017,AP,Andhra Pradesh,101,IN,India,12.74931,78.34189,कुप्पम,city,,,21963.0,Asia/Kolkata,Q587868
132660,Kurnool,4017,AP,Andhra Pradesh,101,IN,India,15.58333,78.33333,कुरनूल,city,,,457633.0,Asia/Kolkata,Q15381
133055,Macherla,4017,AP,Andhra Pradesh,101,IN,India,16.47635,79.43533,माचेर्ला,city,,,57290.0,Asia/Kolkata,Q2241562
132806,Machilipatnam,4017,AP,Andhra Pradesh,101,IN,India,16.18747,81.13888,मछलीपट्टनम,city,,,169892.0,Asia/Kolkata,Q845662
132808,Madanapalle,4017,AP,Andhra Pradesh,101,IN,India,13.5503,78.50288,मदनपल्ली,city,,,180180.0,Asia/Kolkata,Q1017723
133059,Madugula,4017,AP,Andhra Pradesh,101,IN,India,17.91589,82.81578,मदुगुला,city,,,12704.0,Asia/Kolkata,Q3420577
132890,Mandapeta,4017,AP,Andhra Pradesh,101,IN,India,16.86254,81.92921,मंडपेटा,city,,,56063.0,Asia/Kolkata,Q2249065
132891,Mandasa,4017,AP,Andhra Pradesh,101,IN,India,18.8683,84.46296,मंदसा,city,,,9287.0,Asia/Kolkata,Q2249065
132902,Mangalagiri,4017,AP,Andhra Pradesh,101,IN,India,16.43083,80.56815,मंगलगिरी,city,,,107197.0,Asia/Kolkata,Q2349939
133088,Markapur,4017,AP,Andhra Pradesh,101,IN,India,15.73534,79.26848,मरकापुर,city,,,71092.0,Asia/Kolkata,Q2087705
133114,Nagari,4017,AP,Andhra Pradesh,101,IN,India,13.32139,79.58557,नागरी,city,,,62253.0,Asia/Kolkata,Q3869911
133258,Nagireddipalli,4017,AP,Andhra Pradesh,101,IN,India,14.27005,79.10131,नागिरेड्डीपल्ली,city,,,12318.0,Asia/Kolkata,Q847606
133143,Nandigama,4017,AP,Andhra Pradesh,101,IN,India,16.7717,80.28596,नंदीगाम,city,,,44359.0,Asia/Kolkata,Q3428280
133144,Nandikotkur,4017,AP,Andhra Pradesh,101,IN,India,15.85668,78.26569,नंदीकोटकुर,city,,,45343.0,Asia/Kolkata,Q6963320
133146,Nandyal,4017,AP,Andhra Pradesh,101,IN,India,15.47799,78.4836,नांदयाल,city,,,200516.0,Asia/Kolkata,Q1772751
133156,Narasannapeta,4017,AP,Andhra Pradesh,101,IN,India,18.41428,84.04463,नरसन्नापेटा,city,,,26280.0,Asia/Kolkata,Q3429912
133157,Narasapur,4017,AP,Andhra Pradesh,101,IN,India,16.43425,81.69845,नरसापुर,city,,,59306.0,Asia/Kolkata,Q379516
133158,Narasaraopet,4017,AP,Andhra Pradesh,101,IN,India,16.23488,80.04927,नरसारावपेट,city,,,116250.0,Asia/Kolkata,Q2483789
133160,Narasingapuram,4017,AP,Andhra Pradesh,101,IN,India,13.60759,79.31652,नरसिंहपुरम,city,,,10875.0,Asia/Kolkata,Q2475130
133275,Narayanavanam,4017,AP,Andhra Pradesh,101,IN,India,13.42565,79.58881,नारायणवनम,city,,,11253.0,Asia/Kolkata,Q2349929
133173,Narsipatnam,4017,AP,Andhra Pradesh,101,IN,India,17.66709,82.61245,नरसीपट्टनम,city,,,33757.0,Asia/Kolkata,Q2563464
133283,Nayudupet,4017,AP,Andhra Pradesh,101,IN,India,13.90742,79.89465,नायडूपेट,city,,,45769.0,Asia/Kolkata,Q3873467
133206,Nellore,4017,AP,Andhra Pradesh,101,IN,India,14.08333,79.58333,नेल्लोर,city,,,547621.0,Asia/Kolkata,Q15383
133214,Nidadavole,4017,AP,Andhra Pradesh,101,IN,India,16.90572,81.67222,निदादावोले,city,,,43809.0,Asia/Kolkata,Q2563407
133294,Nuzvid,4017,AP,Andhra Pradesh,101,IN,India,16.78854,80.84593,नुज्विद,city,,,58590.0,Asia/Kolkata,Q2734090
133300,Ongole,4017,AP,Andhra Pradesh,101,IN,India,15.50357,80.04454,ओंगोल,city,,,252739.0,Asia/Kolkata,Q1920249
133521,Pakala,4017,AP,Andhra Pradesh,101,IN,India,13.44903,79.11493,पकाला,city,,,21565.0,Asia/Kolkata,Q3430034
133523,Palakollu,4017,AP,Andhra Pradesh,101,IN,India,16.5167,81.73,पलाकोल्लू,adm3,,,81199.0,Asia/Kolkata,Q1945121
133340,Palasa,4017,AP,Andhra Pradesh,101,IN,India,18.77257,84.41012,पलासा,city,,,65833.0,Asia/Kolkata,Q1797254
133534,Palkonda,4017,AP,Andhra Pradesh,101,IN,India,18.60374,83.75568,पालकोंडा,city,,,29378.0,Asia/Kolkata,Q3415029
133331,Pallevada,4017,AP,Andhra Pradesh,101,IN,India,16.5779,81.29463,पल्लेवाड़ा,city,,,2977.0,Asia/Kolkata,Q7127847
133336,Palmaner,4017,AP,Andhra Pradesh,101,IN,India,13.2,78.74725,पाल्मानेर,city,,,54035.0,Asia/Kolkata,Q1752584
133361,Parlakimidi,4017,AP,Andhra Pradesh,101,IN,India,18.78113,84.08836,पारलाकिमिडी,adm3,,,,Asia/Kolkata,Q1797389
133549,Parvatipuram,4017,AP,Andhra Pradesh,101,IN,India,18.78392,83.42569,पार्वतीपुरम,city,,,53844.0,Asia/Kolkata,Q1925363
133395,Pavuluru,4017,AP,Andhra Pradesh,101,IN,India,15.85292,80.16468,पावुलुरू,city,,,10524.0,Asia/Kolkata,Q2249295
133400,Pedana,4017,AP,Andhra Pradesh,101,IN,India,16.25582,81.14378,पेडाना,city,,,30721.0,Asia/Kolkata,Q2563472
134447,pedda nakkalapalem,4017,AP,Andhra Pradesh,101,IN,India,15.8668,80.16202,पेड्डा नक्कलपालेम,city,,,2500.0,Asia/Kolkata,Q663062
133402,Peddapuram,4017,AP,Andhra Pradesh,101,IN,India,17.07701,82.13836,पेद्दापुरम,city,,,49477.0,Asia/Kolkata,Q7159047
133409,Penugonda,4017,AP,Andhra Pradesh,101,IN,India,16.65363,81.7455,पेनुगोंडा,city,,,23654.0,Asia/Kolkata,Q2716197
133410,Penukonda,4017,AP,Andhra Pradesh,101,IN,India,14.08286,77.59473,पेनुकोंडा,city,,,20220.0,Asia/Kolkata,Q2572975
133440,Phirangipuram,4017,AP,Andhra Pradesh,101,IN,India,16.29078,80.26233,फिरंगीपुरम,city,,,16365.0,Asia/Kolkata,Q3430158
133455,Pippara,4017,AP,Andhra Pradesh,101,IN,India,16.71667,81.55,पिप्पारा,city,,,7719.0,Asia/Kolkata,Q2720099
133465,Pithapuram,4017,AP,Andhra Pradesh,101,IN,India,17.1168,82.25284,पीथापुरम,city,,,54859.0,Asia/Kolkata,Q2563530
133468,Polavaram,4017,AP,Andhra Pradesh,101,IN,India,17.24754,81.64372,पोलावरम,city,,,43710.0,Asia/Kolkata,Q3420642
133476,Ponnur,4017,AP,Andhra Pradesh,101,IN,India,16.07114,80.54944,पोन्नूर,city,,,59913.0,Asia/Kolkata,Q720891
133478,Ponnuru,4017,AP,Andhra Pradesh,101,IN,India,16.06547,80.55203,पोन्नुरु,city,,,57170.0,Asia/Kolkata,Q2568315
133485,Prakasam,4017,AP,Andhra Pradesh,101,IN,India,15.5,79.5,प्रकाशम,city,,,3397448.0,Asia/Kolkata,Q15390
133489,Proddatur,4017,AP,Andhra Pradesh,101,IN,India,14.7502,78.54813,प्रोद्दातुर,city,,,163970.0,Asia/Kolkata,Q2349966
133497,Pulivendla,4017,AP,Andhra Pradesh,101,IN,India,14.42139,78.22502,पुलिवेन्दुला,city,,,65706.0,Asia/Kolkata,Q2719107
133506,Punganuru,4017,AP,Andhra Pradesh,101,IN,India,13.36672,78.57186,पुंगनुरु,city,,,54746.0,Asia/Kolkata,Q1854679
133517,Puttaparthi,4017,AP,Andhra Pradesh,101,IN,India,14.1652,77.8117,पुट्टपर्ती,city,,,9000.0,Asia/Kolkata,Q1068595
133519,Puttur,4017,AP,Andhra Pradesh,101,IN,India,13.44189,79.55314,पुत्तूर,city,,,53061.0,Asia/Kolkata,Q1945739
133671,Rajahmundry,4017,AP,Andhra Pradesh,101,IN,India,17.00517,81.77784,राजमुंदरी,city,,,341831.0,Asia/Kolkata,Q1639492
133691,Ramachandrapuram,4017,AP,Andhra Pradesh,101,IN,India,16.83636,82.02871,रामचंद्रपुरम,city,,,43657.0,Asia/Kolkata,Q542856
133600,Ramanayyapeta,4017,AP,Andhra Pradesh,101,IN,India,16.94516,82.2385,रामनय्यापेटा,city,,,28369.0,Asia/Kolkata,Q2229781
133712,Ramapuram,4017,AP,Andhra Pradesh,101,IN,India,15.28749,77.86722,रामपुरम,city,,,5961.0,Asia/Kolkata,Q1605050
133605,Rampachodavaram,4017,AP,Andhra Pradesh,101,IN,India,17.44088,81.77558,रामपछोड़ावरम,city,,,25074.0,Asia/Kolkata,Q2010452
133729,Rayachoti,4017,AP,Andhra Pradesh,101,IN,India,14.05723,78.75056,रायचोटी,city,,,91234.0,Asia/Kolkata,Q2349951
133730,Rayadrug,4017,AP,Andhra Pradesh,101,IN,India,14.69971,76.85241,रायड्रग,city,,,61749.0,Asia/Kolkata,Q2349951
133734,Razam,4017,AP,Andhra Pradesh,101,IN,India,18.44909,83.65957,रज़म,city,,,42197.0,Asia/Kolkata,Q3537413
133732,Razampeta,4017,AP,Andhra Pradesh,101,IN,India,14.19544,79.15896,रज़ाम्पेटा,city,,,54050.0,Asia/Kolkata,Q3537413
133733,Razole,4017,AP,Andhra Pradesh,101,IN,India,16.47608,81.83912,राजोलु,city,,,13597.0,Asia/Kolkata,Q3537413
133627,Renigunta,4017,AP,Andhra Pradesh,101,IN,India,13.65143,79.51256,रेनिगुंटा,city,,,26031.0,Asia/Kolkata,Q720932
133630,Repalle,4017,AP,Andhra Pradesh,101,IN,India,16.0184,80.82958,रेपल्ले,city,,,50866.0,Asia/Kolkata,Q2483836
134065,Salur,4017,AP,Andhra Pradesh,101,IN,India,18.51716,83.20548,सालुर,city,,,50206.0,Asia/Kolkata,Q2563482
134066,Samalkot,4017,AP,Andhra Pradesh,101,IN,India,17.05675,82.17639,समालकोट,city,,,56864.0,Asia/Kolkata,Q2563482
133822,Sattenapalle,4017,AP,Andhra Pradesh,101,IN,India,16.39381,80.15221,सत्तेनापल्ली,city,,,56721.0,Asia/Kolkata,Q3445011
133946,Singarayakonda,4017,AP,Andhra Pradesh,101,IN,India,15.23046,80.02794,सिंगरायकोंडा,city,,,19400.0,Asia/Kolkata,Q720856
133990,Sompeta,4017,AP,Andhra Pradesh,101,IN,India,18.94419,84.58449,सोम्पेता,city,,,18778.0,Asia/Kolkata,Q607071
134019,Srikakulam,4017,AP,Andhra Pradesh,101,IN,India,18.2989,83.89751,श्रीकाकुलम,city,,,137944.0,Asia/Kolkata,Q671757
134032,Srisailain,4017,AP,Andhra Pradesh,101,IN,India,16.07217,78.86816,श्रीशैलैन,city,,,24142.0,Asia/Kolkata,Q2269015
134093,Suluru,4017,AP,Andhra Pradesh,101,IN,India,13.7,80.01667,सुलुरु,city,,,38065.0,Asia/Kolkata,Q2248468
134226,Tadepalle,4017,AP,Andhra Pradesh,101,IN,India,16.48333,80.6,ताडेपल्ले,city,,,64149.0,Asia/Kolkata,Q2738731
134227,Tadepallegudem,4017,AP,Andhra Pradesh,101,IN,India,16.81467,81.52717,ताडेपल्लेगुडेम,city,,,108167.0,Asia/Kolkata,Q2235626
134228,Tadpatri,4017,AP,Andhra Pradesh,101,IN,India,14.90832,78.01031,ताड़पत्री,city,,,108171.0,Asia/Kolkata,Q2336339
134113,Tanuku,4017,AP,Andhra Pradesh,101,IN,India,16.75438,81.68143,टनुकु,city,,,77962.0,Asia/Kolkata,Q2566481
134126,Tekkali,4017,AP,Andhra Pradesh,101,IN,India,18.6057,84.23546,तेक्काली,city,,,28631.0,Asia/Kolkata,Q429171
134183,Tirumala,4017,AP,Andhra Pradesh,101,IN,India,13.68333,79.35,तिरुमाला,city,,,18013.0,Asia/Kolkata,Q3424247
134187,Tirupati,4017,AP,Andhra Pradesh,101,IN,India,13.63551,79.41989,तिरुपति,city,,,287482.0,Asia/Kolkata,Q213248
134222,Tuni,4017,AP,Andhra Pradesh,101,IN,India,17.35905,82.54607,तुनि,city,,,53425.0,Asia/Kolkata,Q2576041
134292,Uravakonda,4017,AP,Andhra Pradesh,101,IN,India,14.94348,77.25494,उरावकोंडा,city,,,35565.0,Asia/Kolkata,Q736330
134448,vadlamuru,4017,AP,Andhra Pradesh,101,IN,India,17.09545,82.16565,वडलमुरु,city,,,10000.0,Asia/Kolkata,Q663062
134308,Vadlapudi,4017,AP,Andhra Pradesh,101,IN,India,14.31119,79.8043,वडलापुडी,city,,,17881.0,Asia/Kolkata,Q2449175
134347,Venkatagiri,4017,AP,Andhra Pradesh,101,IN,India,13.96005,79.58032,वेंकटगिरी,city,,,52688.0,Asia/Kolkata,Q719838
134348,Vepagunta,4017,AP,Andhra Pradesh,101,IN,India,17.77844,83.21577,वेपागुंटा,city,,,26881.0,Asia/Kolkata,Q720888
134350,Vetapalem,4017,AP,Andhra Pradesh,101,IN,India,15.78502,80.30663,वेतापालेम,city,,,38671.0,Asia/Kolkata,Q2563456
134356,Vijayawada,4017,AP,Andhra Pradesh,101,IN,India,16.50745,80.6466,विजयवाड़ा,city,,,1048240.0,Asia/Kolkata,Q200017
134364,Vinukonda,4017,AP,Andhra Pradesh,101,IN,India,16.0531,79.73964,विनुकोंडा,city,,,59725.0,Asia/Kolkata,Q2566502
134369,Visakhapatnam,4017,AP,Andhra Pradesh,101,IN,India,17.68009,83.20161,विशाखापत्तनम,adm2,,,1063178.0,Asia/Kolkata,Q200016
134373,Vizianagaram,4017,AP,Andhra Pradesh,101,IN,India,18.11692,83.41148,विजयनगरम,adm2,,,228720.0,Asia/Kolkata,Q3619248
134374,Vizianagaram District,4017,AP,Andhra Pradesh,101,IN,India,18.41102,83.37677,विजयनगरम जिला,district,,,2344474.0,Asia/Kolkata,Q15392
134377,Vuyyuru,4017,AP,Andhra Pradesh,101,IN,India,16.36307,80.84406,वुय्युरु,city,,,36755.0,Asia/Kolkata,Q3418817
134407,West Godavari,4017,AP,Andhra Pradesh,101,IN,India,17.0,81.16667,पश्चिम गोदावरी,city,,,3936966.0,Asia/Kolkata,Q15404
134424,Yanam,4017,AP,Andhra Pradesh,101,IN,India,16.73308,82.21364,यानम,city,,,55626.0,Asia/Kolkata,Q1807929
134426,Yanamalakuduru,4017,AP,Andhra Pradesh,101,IN,India,16.48531,80.66746,यनामालाकुदुरु,city,,,34177.0,Asia/Kolkata,Q2126598
134437,Yarada,4017,AP,Andhra Pradesh,101,IN,India,17.65872,83.27419,यारदा,city,,,3406.0,Asia/Kolkata,Q564781
57645,Along,4024,AR,Arunachal Pradesh,101,IN,India,28.16951,94.8006,साथ में,adm2,,,18425.0,Asia/Kolkata,Q519770
57708,Anjaw,4024,AR,Arunachal Pradesh,101,IN,India,28.06549,96.82878,अंजॉ,adm2,,,21167.0,Asia/Kolkata,Q15413
58151,Basar,4024,AR,Arunachal Pradesh,101,IN,India,27.99008,94.69451,बसर,adm2,,,4284.0,Asia/Kolkata,Q712428
58080,Bomdila,4024,AR,Arunachal Pradesh,101,IN,India,27.26475,92.42472,बोमडिला,city,,,8370.0,Asia/Kolkata,Q859141
58196,Changlang,4024,AR,Arunachal Pradesh,101,IN,India,27.36265,96.34518,चांगलांग,city,,,148226.0,Asia/Kolkata,Q15427
131763,Dibang Valley,4024,AR,Arunachal Pradesh,101,IN,India,28.7,95.7,दिबांग घाटी,city,,,8004.0,Asia/Kolkata,Q42479
131826,East Kameng,4024,AR,Arunachal Pradesh,101,IN,India,27.3,93.05,पूर्वी कामेंग,city,,,78690.0,Asia/Kolkata,Q15424
131828,East Siang,4024,AR,Arunachal Pradesh,101,IN,India,28.12379,95.16339,पूर्वी सियांग,city,,,99214.0,Asia/Kolkata,Q1945304
132090,Hayuliang,4024,AR,Arunachal Pradesh,101,IN,India,28.07301,96.54305,हयुलियांग,city,,,1834.0,Asia/Kolkata,Q18348790
132178,Itanagar,4024,AR,Arunachal Pradesh,101,IN,India,27.08694,93.60987,ईटानगर,adm1,,,59490.0,Asia/Kolkata,Q41128
132499,Khonsa,4024,AR,Arunachal Pradesh,101,IN,India,27.01667,95.56667,खोंसा,city,,,9229.0,Asia/Kolkata,Q2231406
132663,Kurung Kumey,4024,AR,Arunachal Pradesh,101,IN,India,27.99983,93.3924,कुरुंग कुमे,city,,,92076.0,Asia/Kolkata,Q2449506
132769,Lohit,4024,AR,Arunachal Pradesh,101,IN,India,27.84012,96.19521,लोहित जिला,district,,,145726.0,Asia/Kolkata,Q15438
132779,Lower Dibang Valley,4024,AR,Arunachal Pradesh,101,IN,India,28.37258,95.8804,निचली दिबांग घाटी,city,,,54080.0,Asia/Kolkata,Q2373368
132780,Lower Subansiri,4024,AR,Arunachal Pradesh,101,IN,India,27.62554,93.93908,निचला सुबनसिरी,city,,,83030.0,Asia/Kolkata,Q15436
132934,Margherita,4024,AR,Arunachal Pradesh,101,IN,India,27.28482,95.66796,मार्गेरिटा,city,,,26914.0,Asia/Kolkata,Q1924981
133121,Naharlagun,4024,AR,Arunachal Pradesh,101,IN,India,27.10467,93.69518,नाहरलगुन,city,,,36158.0,Asia/Kolkata,Q2576091
133551,Pasighat,4024,AR,Arunachal Pradesh,101,IN,India,28.06631,95.32678,पासीघाट,city,,,25581.0,Asia/Kolkata,Q1936930
134120,Tawang,4024,AR,Arunachal Pradesh,101,IN,India,27.57417,91.92437,तवांग,city,,,11202.0,Asia/Kolkata,Q1006270
134135,Tezu,4024,AR,Arunachal Pradesh,101,IN,India,27.91256,96.12882,तेजु,city,,,18184.0,Asia/Kolkata,Q13221
134199,Tirap,4024,AR,Arunachal Pradesh,101,IN,India,27.01917,95.51788,तिराप,city,,,111975.0,Asia/Kolkata,Q15448
134288,Upper Siang,4024,AR,Arunachal Pradesh,101,IN,India,28.83355,94.91806,ऊपरी सियांग,city,,,35320.0,Asia/Kolkata,Q15465
134289,Upper Subansiri,4024,AR,Arunachal Pradesh,101,IN,India,28.3,94.0,ऊपरी सुबनसिरी,city,,,83448.0,Asia/Kolkata,Q15464
134409,West Kameng,4024,AR,Arunachal Pradesh,101,IN,India,27.4,92.35,पश्चिम कामेंग,city,,,83947.0,Asia/Kolkata,Q15459
134411,West Siang,4024,AR,Arunachal Pradesh,101,IN,India,28.4,94.55,पश्चिम सियांग,city,,,112274.0,Asia/Kolkata,Q15453
134444,Ziro,4024,AR,Arunachal Pradesh,101,IN,India,27.59497,93.83854,जाइरो,city,,,13893.0,Asia/Kolkata,Q663062
57585,Abhayapuri,4027,AS,Assam,101,IN,India,26.32255,90.68526,अभयपुरी,city,,,15847.0,Asia/Kolkata,Q490701
57679,Amguri,4027,AS,Assam,101,IN,India,26.81482,94.52614,अमगुरी,city,,,8494.0,Asia/Kolkata,Q585858
57787,Badarpur,4027,AS,Assam,101,IN,India,24.86852,92.59606,बदरपुर,city,,,13298.0,Asia/Kolkata,Q2563426
57820,Baksa,4027,AS,Assam,101,IN,India,26.69804,91.15142,बक्सा,city,,,950075.0,Asia/Kolkata,Q622831
57883,Barpathar,4027,AS,Assam,101,IN,India,26.28709,93.88844,बारपाथर,city,,,7657.0,Asia/Kolkata,Q707805
57884,Barpeta,4027,AS,Assam,101,IN,India,26.47104,91.0308,बारपेटा,city,,,1693622.0,Asia/Kolkata,Q41249
57885,Barpeta Road,4027,AS,Assam,101,IN,India,26.50284,90.96937,बारपेटा रोड,city,,,35571.0,Asia/Kolkata,Q712460
58150,Basugaon,4027,AS,Assam,101,IN,India,26.46742,90.41951,बसुगांव,city,,,13849.0,Asia/Kolkata,Q712428
58028,Bihpuriagaon,4027,AS,Assam,101,IN,India,27.01718,93.91673,बिहपुरियागांव,city,,,11780.0,Asia/Kolkata,Q796775
58034,Bijni,4027,AS,Assam,101,IN,India,26.49588,90.70298,बिजनी,city,,,13257.0,Asia/Kolkata,Q797126
58053,Bilasipara,4027,AS,Assam,101,IN,India,26.23285,90.2341,बिलासीपारा,city,,,37739.0,Asia/Kolkata,Q795803
58075,Bokajan,4027,AS,Assam,101,IN,India,26.02131,93.77945,बोकाजन,city,,,19877.0,Asia/Kolkata,Q633816
58077,Bokakhat,4027,AS,Assam,101,IN,India,26.64018,93.60052,बोकाखाट,city,,,10143.0,Asia/Kolkata,Q859160
58081,Bongaigaon,4027,AS,Assam,101,IN,India,26.4603,90.6464,बोंगईगांव,city,,,738804.0,Asia/Kolkata,Q42197
131634,Cachar,4027,AS,Assam,101,IN,India,24.78213,92.85771,कछार,city,,,1736617.0,Asia/Kolkata,Q42209
131588,Chabua,4027,AS,Assam,101,IN,India,27.48253,95.17451,छाबुआ,city,,,8966.0,Asia/Kolkata,Q861884
131604,Chapar,4027,AS,Assam,101,IN,India,26.27266,90.44556,चापर,city,,,20322.0,Asia/Kolkata,Q2733320
131568,Chirang,4027,AS,Assam,101,IN,India,26.52527,90.49066,चिरांग,city,,,482162.0,Asia/Kolkata,Q2574898
131657,Darrang,4027,AS,Assam,101,IN,India,26.51195,92.16843,दरांग,city,,,928500.0,Asia/Kolkata,Q42461
131695,Dergaon,4027,AS,Assam,101,IN,India,26.7,93.96667,डेरगांव,city,,,20059.0,Asia/Kolkata,Q1189812
131732,Dhekiajuli,4027,AS,Assam,101,IN,India,26.70367,92.47808,ढेकियाजुली,city,,,21579.0,Asia/Kolkata,Q1258219
131733,Dhemaji,4027,AS,Assam,101,IN,India,27.6091,94.7942,धेमाजी,city,,,13058.0,Asia/Kolkata,Q42473
131737,Dhing,4027,AS,Assam,101,IN,India,26.46793,92.47336,ढिंग,city,,,20826.0,Asia/Kolkata,Q1259385
131744,Dhubri,4027,AS,Assam,101,IN,India,26.06749,90.02238,धुबरी,city,,,63388.0,Asia/Kolkata,Q1265559
131762,Dibrugarh,4027,AS,Assam,101,IN,India,27.5,95.0,डिब्रूगढ़,city,,,145488.0,Asia/Kolkata,Q42479
131766,Digboi,4027,AS,Assam,101,IN,India,27.39321,95.61839,डिगबोई,city,,,21736.0,Asia/Kolkata,Q1267577
131770,Dima Hasao,4027,AS,Assam,101,IN,India,25.5,93.0,दीमा हसाओ जिला,district,,,214102.0,Asia/Kolkata,Q42774
131776,Diphu,4027,AS,Assam,101,IN,India,25.84341,93.43116,दिफू,city,,,61797.0,Asia/Kolkata,Q1227167
131778,Dispur,4027,AS,Assam,101,IN,India,26.13564,91.80069,दिसपुर,adm1,,,10812.0,Asia/Kolkata,Q271911
131795,Duliagaon,4027,AS,Assam,101,IN,India,27.37227,95.30754,दुलियागांव,city,,,,Asia/Kolkata,Q1387263
131796,Dum Duma,4027,AS,Assam,101,IN,India,27.56884,95.55664,डम डम,city,,,21706.0,Asia/Kolkata,Q1387064
131928,Gauripur,4027,AS,Assam,101,IN,India,26.08334,89.96118,गौरीपुर,city,,,23477.0,Asia/Kolkata,Q279871
132004,Goalpara,4027,AS,Assam,101,IN,India,26.12791,90.60974,गोलपाड़ा,city,,,9636.0,Asia/Kolkata,Q42522
131967,Gohpur,4027,AS,Assam,101,IN,India,26.88184,93.6156,गोहपुर,city,,,12223.0,Asia/Kolkata,Q1708616
131976,Golaghat,4027,AS,Assam,101,IN,India,26.4092,93.91193,गोलाघाट,city,,,41989.0,Asia/Kolkata,Q42517
131977,Golakganj,4027,AS,Assam,101,IN,India,26.10216,89.82275,गोलकगंज,city,,,8244.0,Asia/Kolkata,Q1707247
131997,Goshaingaon,4027,AS,Assam,101,IN,India,26.43946,89.96307,गोशाईंगांव,city,,,13933.0,Asia/Kolkata,Q1707386
132039,Guwahati,4027,AS,Assam,101,IN,India,26.1844,91.7458,गुवाहाटी,city,,,1116267.0,Asia/Kolkata,Q199605
132134,Haflong,4027,AS,Assam,101,IN,India,25.16478,93.01744,हाफलोंग,city,,,43756.0,Asia/Kolkata,Q1026900
132055,Hailakandi,4027,AS,Assam,101,IN,India,24.5017,92.60069,हैलाकांडी,city,,,33637.0,Asia/Kolkata,Q42505
132137,Hajo,4027,AS,Assam,101,IN,India,26.2452,91.52525,हाजो,city,,,15977.0,Asia/Kolkata,Q1707355
132110,Hojai,4027,AS,Assam,101,IN,India,26.00281,92.85605,होजाई,adm2,,,36869.0,Asia/Kolkata,Q640538
132126,Howli,4027,AS,Assam,101,IN,India,26.42237,90.98004,हाउली,city,,,18301.0,Asia/Kolkata,Q1707538
132291,Jogighopa,4027,AS,Assam,101,IN,India,26.22646,90.57247,जोगीघोपा,city,,,2415.0,Asia/Kolkata,Q6214788
132294,Jorhat,4027,AS,Assam,101,IN,India,26.8,94.26,जोरहाट,city,,,153249.0,Asia/Kolkata,Q42611
132693,Kamrup,4027,AS,Assam,101,IN,India,26.22322,91.65344,कामरूप,city,,,1517542.0,Asia/Kolkata,Q2247441
132366,Kamrup Metropolitan,4027,AS,Assam,101,IN,India,26.05375,92.00763,कामरूप मेट्रोपॉलिटन,city,,,1253938.0,Asia/Kolkata,Q2316852
132718,Karbi Anglong,4027,AS,Assam,101,IN,India,26.0,93.5,कार्बी आंगलोंग,city,,,,Asia/Kolkata,Q42558
132402,Karimganj,4027,AS,Assam,101,IN,India,24.6,92.4,करीमगंज,city,,,56854.0,Asia/Kolkata,Q42542
132518,Kharupatia,4027,AS,Assam,101,IN,India,26.51839,92.14722,खरुपटिया,city,,,18599.0,Asia/Kolkata,Q2120118
132551,Kokrajhar,4027,AS,Assam,101,IN,India,26.6,90.2,कोकराझार,city,,,34136.0,Asia/Kolkata,Q42618
132742,Lakhimpur,4027,AS,Assam,101,IN,India,27.35,94.25,लखीमपुर,city,,,140223.0,Asia/Kolkata,Q42743
132743,Lakhipur,4027,AS,Assam,101,IN,India,24.79281,93.0091,लखीपुर,city,,,12871.0,Asia/Kolkata,Q12450962
132793,Lala,4027,AS,Assam,101,IN,India,24.55418,92.61592,लाला,city,,,11771.0,Asia/Kolkata,Q1929695
132786,Lumding Railway Colony,4027,AS,Assam,101,IN,India,25.74903,93.16998,लुमडिंग रेलवे कॉलोनी,city,,,31347.0,Asia/Kolkata,Q2244284
132842,Mahur,4027,AS,Assam,101,IN,India,25.18305,93.11342,माहुर,city,,,7176.0,Asia/Kolkata,Q1925068
132853,Maibong,4027,AS,Assam,101,IN,India,25.30125,93.13811,माईबोंग,city,,,8364.0,Asia/Kolkata,Q2563522
133064,Makum,4027,AS,Assam,101,IN,India,27.48652,95.43646,मकुम,city,,,16923.0,Asia/Kolkata,Q2563541
132904,Mangaldai,4027,AS,Assam,101,IN,India,26.44212,92.03047,मंगलदाई,city,,,25989.0,Asia/Kolkata,Q2308247
132937,Mariani,4027,AS,Assam,101,IN,India,26.65725,94.31529,मरिअनी,city,,,23640.0,Asia/Kolkata,Q2330626
133002,Moranha,4027,AS,Assam,101,IN,India,27.18735,94.91557,मोरान्हा,city,,,7136.0,Asia/Kolkata,Q1345006
132995,Morigaon,4027,AS,Assam,101,IN,India,26.25213,92.34238,मोरीगांव,adm2,,,29164.0,Asia/Kolkata,Q42737
133110,Nagaon,4027,AS,Assam,101,IN,India,26.35037,92.69225,नगांव,city,,,6315.0,Asia/Kolkata,Q42686
133122,Nahorkatiya,4027,AS,Assam,101,IN,India,27.28912,95.3418,नाहोरकटिया,city,,,,Asia/Kolkata,Q2733371
133130,Nalbari,4027,AS,Assam,101,IN,India,26.5,91.4,नलबाड़ी,city,,,27839.0,Asia/Kolkata,Q42779
133266,Namrup,4027,AS,Assam,101,IN,India,27.19395,95.31929,नामरूप,city,,,18432.0,Asia/Kolkata,Q938816
133284,Nazira,4027,AS,Assam,101,IN,India,26.91649,94.73611,नाज़िरा,city,,,14302.0,Asia/Kolkata,Q2733289
133239,North Guwahati,4027,AS,Assam,101,IN,India,26.19749,91.7202,उत्तरी गुवाहाटी,city,,,17516.0,Asia/Kolkata,Q2733384
133240,North Lakhimpur,4027,AS,Assam,101,IN,India,27.23517,94.10357,उत्तर लखीमपुर,city,,,59841.0,Asia/Kolkata,Q2088889
133248,Numaligarh,4027,AS,Assam,101,IN,India,26.62249,93.72225,नुमालीगढ़,city,,,7386.0,Asia/Kolkata,Q2738436
133341,Palasbari,4027,AS,Assam,101,IN,India,26.12388,91.53974,पलासबारी,city,,,4925.0,Asia/Kolkata,Q2228584
133584,Raha,4027,AS,Assam,101,IN,India,26.23333,92.51667,राहा,city,,,11030.0,Asia/Kolkata,Q2573077
133610,Rangapara,4027,AS,Assam,101,IN,India,26.83772,92.66876,रंगापारा,city,,,18739.0,Asia/Kolkata,Q2732997
133608,Rangia,4027,AS,Assam,101,IN,India,26.44931,91.61356,रंगिया,city,,,27889.0,Asia/Kolkata,Q2475022
133798,Sapatgram,4027,AS,Assam,101,IN,India,26.33732,90.1236,सपातग्राम,city,,,12163.0,Asia/Kolkata,Q2732976
133809,Sarupathar,4027,AS,Assam,101,IN,India,26.206,96.81,सरूपथार,city,,,9827.0,Asia/Kolkata,Q638291
133916,Sibsagar,4027,AS,Assam,101,IN,India,26.98427,94.63784,शिवसागर,city,,,62104.0,Asia/Kolkata,Q1284453
133934,Silapathar,4027,AS,Assam,101,IN,India,27.59441,94.72402,सिलापाथर,city,,,25662.0,Asia/Kolkata,Q1617473
133935,Silchar,4027,AS,Assam,101,IN,India,24.82733,92.79787,सिलचर,city,,,178865.0,Asia/Kolkata,Q944769
133979,Soalkuchi,4027,AS,Assam,101,IN,India,26.16806,91.57111,सोलकुची,city,,,13917.0,Asia/Kolkata,Q249311
133998,Sonari,4027,AS,Assam,101,IN,India,27.02462,95.01629,सोनारी,city,,,19810.0,Asia/Kolkata,Q2737021
133996,Sonitpur,4027,AS,Assam,101,IN,India,26.76748,92.96425,सोनितपुर,city,,,1924110.0,Asia/Kolkata,Q2734240
134003,Sorbhog,4027,AS,Assam,101,IN,India,26.48612,90.8859,शर्बत,city,,,7614.0,Asia/Kolkata,Q2545590
134134,Tezpur,4027,AS,Assam,101,IN,India,26.63333,92.8,तेजपुर,city,,,75540.0,Asia/Kolkata,Q1021162
134175,Tinsukia,4027,AS,Assam,101,IN,India,27.6,95.6,तिनसुकिया,city,,,99507.0,Asia/Kolkata,Q42756
134203,Titabar,4027,AS,Assam,101,IN,India,26.6014,94.20386,टिटाबार,city,,,7836.0,Asia/Kolkata,Q2717487
134252,Udalguri,4027,AS,Assam,101,IN,India,26.75367,92.10215,उदलगुड़ी,city,,,15935.0,Asia/Kolkata,Q2726152
57661,Amarpur,4037,BR,Bihar,101,IN,India,25.03967,86.90247,अमरपुर,city,,,25336.0,Asia/Kolkata,Q1609229
57730,Araria,4037,BR,Bihar,101,IN,India,26.2,87.4,अररिया,city,,,79021.0,Asia/Kolkata,Q42901
57739,Arrah,4037,BR,Bihar,101,IN,India,25.55629,84.66335,आरा,city,,,261430.0,Asia/Kolkata,Q588587
57747,Arwal,4037,BR,Bihar,101,IN,India,25.16158,84.6904,अरवल,city,,,51849.0,Asia/Kolkata,Q42917
57749,Asarganj,4037,BR,Bihar,101,IN,India,25.15046,86.68639,असरगंज,city,,,6327.0,Asia/Kolkata,Q589912
57766,Aurangabad,4037,BR,Bihar,101,IN,India,24.75204,84.3742,औरंगाबाद,city,,,102244.0,Asia/Kolkata,Q590550
57796,Bagaha,4037,BR,Bihar,101,IN,India,27.09918,84.09003,बगहा,city,,,112634.0,Asia/Kolkata,Q590593
57809,Bahadurganj,4037,BR,Bihar,101,IN,India,26.26172,87.82443,बहादुरगंज,city,,,36993.0,Asia/Kolkata,Q622603
57815,Bairagnia,4037,BR,Bihar,101,IN,India,26.74063,85.27323,बैरागनिया,city,,,42895.0,Asia/Kolkata,Q636552
57816,Baisi,4037,BR,Bihar,101,IN,India,25.86302,87.74487,बैसी,city,,,1319.0,Asia/Kolkata,Q4848696
57818,Bakhtiyarpur,4037,BR,Bihar,101,IN,India,25.46179,85.53179,बख्तियारपुर,city,,,34533.0,Asia/Kolkata,Q622609
57850,Bangaon,4037,BR,Bihar,101,IN,India,25.86728,86.51152,बनगांव,city,,,60000.0,Asia/Kolkata,Q5266882
57854,Banka,4037,BR,Bihar,101,IN,India,24.89214,86.98425,बांका,city,,,45977.0,Asia/Kolkata,Q43097
57855,Banmankhi,4037,BR,Bihar,101,IN,India,25.88857,87.19421,बनमनखी,city,,,26806.0,Asia/Kolkata,Q4856831
57860,Bar Bigha,4037,BR,Bihar,101,IN,India,25.21855,85.7332,बार बीघा,city,,,41758.0,Asia/Kolkata,Q622613
57864,Barauli,4037,BR,Bihar,101,IN,India,26.38109,84.58648,बरौली,city,,,41877.0,Asia/Kolkata,Q12440787
58141,Barh,4037,BR,Bihar,101,IN,India,25.48339,85.70928,बाढ़,city,,,61470.0,Asia/Kolkata,Q709313
57873,Barhiya,4037,BR,Bihar,101,IN,India,25.28814,86.02055,बरहिया,city,,,43045.0,Asia/Kolkata,Q709090
57875,Bariarpur,4037,BR,Bihar,101,IN,India,25.28791,86.57643,बरियारपुर,city,,,14595.0,Asia/Kolkata,Q712396
58145,Baruni,4037,BR,Bihar,101,IN,India,25.47509,85.96813,बरुनी,city,,,84888.0,Asia/Kolkata,Q42016
57915,Begusarai,4037,BR,Bihar,101,IN,India,25.41853,86.13389,बेगूसराय,adm2,,,252008.0,Asia/Kolkata,Q598985
57927,Belsand,4037,BR,Bihar,101,IN,India,26.44365,85.40076,बेलसंड,city,,,20566.0,Asia/Kolkata,Q721485
57941,Bettiah,4037,BR,Bihar,101,IN,India,26.80229,84.50311,बेतिया,city,,,132209.0,Asia/Kolkata,Q759222
57947,Bhabhua,4037,BR,Bihar,101,IN,India,25.04049,83.60749,भाभुआ,city,,,50179.0,Asia/Kolkata,Q759544
58009,Bhagalpur,4037,BR,Bihar,101,IN,India,25.29023,87.06665,भागलपुर,city,,,400146.0,Asia/Kolkata,Q49155
57957,Bhagirathpur,4037,BR,Bihar,101,IN,India,26.2695,86.06346,भागीरथपुर,city,,,3500.0,Asia/Kolkata,Q2284099
57974,Bhawanipur,4037,BR,Bihar,101,IN,India,26.45352,87.02744,भवानीपुर,city,,,27000.0,Asia/Kolkata,Q4901597
57991,Bhojpur,4037,BR,Bihar,101,IN,India,25.30886,84.44504,भोजपुर,city,,,0.0,Asia/Kolkata,Q796770
58029,Bihar Sharif,4037,BR,Bihar,101,IN,India,25.20084,85.52389,बिहारशरीफ,city,,,297268.0,Asia/Kolkata,Q2308343
58030,Bihariganj,4037,BR,Bihar,101,IN,India,25.73415,86.98837,बिहारीगंज,city,,,32805.0,Asia/Kolkata,Q4907104
58039,Bikramganj,4037,BR,Bihar,101,IN,India,25.21073,84.25508,बिक्रमगंज,city,,,48465.0,Asia/Kolkata,Q796526
58160,Birpur,4037,BR,Bihar,101,IN,India,26.50823,87.01194,बीरपुर,city,,,19932.0,Asia/Kolkata,Q795718
58089,Bodh Gaya,4037,BR,Bihar,101,IN,India,24.69808,84.9869,बोधगया,city,,,38439.0,Asia/Kolkata,Q176767
58100,Buxar,4037,BR,Bihar,101,IN,India,25.5,84.1,बक्सर,city,,,102861.0,Asia/Kolkata,Q49161
131590,Chakia,4037,BR,Bihar,101,IN,India,26.41598,85.04665,चकिया,city,,,20686.0,Asia/Kolkata,Q1924830
131605,Chapra,4037,BR,Bihar,101,IN,India,25.78031,84.74709,छपरा,city,,,202352.0,Asia/Kolkata,Q1755440
131541,Chhatapur,4037,BR,Bihar,101,IN,India,26.21965,87.00479,छातापुर,city,,,23425.0,Asia/Kolkata,Q888816
131620,Colgong,4037,BR,Bihar,101,IN,India,25.26328,87.23264,कोलगोंग,city,,,33700.0,Asia/Kolkata,Q1190209
131647,Dalsingh Sarai,4037,BR,Bihar,101,IN,India,25.66795,85.83636,दलसिंह सराय,city,,,23862.0,Asia/Kolkata,Q1189794
131654,Darbhanga,4037,BR,Bihar,101,IN,India,26.0,86.0,दरभंगा,city,,,296039.0,Asia/Kolkata,Q49160
131664,Daudnagar,4037,BR,Bihar,101,IN,India,25.03473,84.40095,दौडनगर,city,,,52364.0,Asia/Kolkata,Q1191619
131677,Dehri,4037,BR,Bihar,101,IN,India,24.90247,84.18217,डेहरी,city,,,,Asia/Kolkata,Q1190622
131748,Dhaka,4037,BR,Bihar,101,IN,India,26.67479,85.16698,ढाका,city,,,42063.0,Asia/Kolkata,Q1257018
131767,Dighwara,4037,BR,Bihar,101,IN,India,25.74434,85.01003,दिघवारा,city,,,32741.0,Asia/Kolkata,Q1255941
131773,Dinapore,4037,BR,Bihar,101,IN,India,25.63705,85.04794,दीनापुर,city,,,152940.0,Asia/Kolkata,Q1022305
131798,Dumra,4037,BR,Bihar,101,IN,India,26.56708,85.5204,डुमरा,city,,,15778.0,Asia/Kolkata,Q2577657
131799,Dumraon,4037,BR,Bihar,101,IN,India,25.55265,84.15149,दुमरांव,city,,,53618.0,Asia/Kolkata,Q1524667
131873,Fatwa,4037,BR,Bihar,101,IN,India,25.50958,85.30504,फतवा,city,,,50961.0,Asia/Kolkata,Q1320989
131878,Forbesganj,4037,BR,Bihar,101,IN,India,26.30253,87.26556,फोर्बेस्गंज,city,,,50475.0,Asia/Kolkata,Q721265
131932,Gaya,4037,BR,Bihar,101,IN,India,24.79686,85.00385,गया,city,,,474093.0,Asia/Kolkata,Q251329
131943,Ghoga,4037,BR,Bihar,101,IN,India,25.21738,87.1571,घोगा,city,,,3766.0,Asia/Kolkata,Q1706729
131987,Gopalganj,4037,BR,Bihar,101,IN,India,26.5,84.33333,गोपालगंज,city,,,67339.0,Asia/Kolkata,Q49171
132138,Hajipur,4037,BR,Bihar,101,IN,India,25.68544,85.20981,हाजीपुर,city,,,147688.0,Asia/Kolkata,Q1949403
132095,Hilsa,4037,BR,Bihar,101,IN,India,25.31642,85.28234,हिलसा,city,,,51052.0,Asia/Kolkata,Q2734910
132107,Hisua,4037,BR,Bihar,101,IN,India,24.8336,85.41729,हिसुआ,city,,,32585.0,Asia/Kolkata,Q2317259
132174,Islampur,4037,BR,Bihar,101,IN,India,25.14075,85.20587,इस्लामपुर,city,,,35641.0,Asia/Kolkata,Q1747221
132188,Jagdispur,4037,BR,Bihar,101,IN,India,25.46811,84.41939,जगदीशपुर,city,,,32447.0,Asia/Kolkata,Q5475354
132198,Jahanabad,4037,BR,Bihar,101,IN,India,25.21368,84.9871,जहानाबाद,city,,,103202.0,Asia/Kolkata,Q3806140
132234,Jamalpur,4037,BR,Bihar,101,IN,India,25.31258,86.48888,जमालपुर,adm3,,,105434.0,Asia/Kolkata,Q2734136
132233,Jamui,4037,BR,Bihar,101,IN,India,24.92082,86.17538,जमुई,city,,,87357.0,Asia/Kolkata,Q49168
132258,Jaynagar,4037,BR,Bihar,101,IN,India,26.59048,86.13791,जयनगर,city,,,21782.0,Asia/Kolkata,Q2317504
132259,Jehanabad,4037,BR,Bihar,101,IN,India,25.20701,84.99573,जहानाबाद,city,,,1125313.0,Asia/Kolkata,Q49176
132274,Jha-Jha,4037,BR,Bihar,101,IN,India,24.77107,86.37888,झा-झा,city,,,40646.0,Asia/Kolkata,Q1006350
132267,Jhanjharpur,4037,BR,Bihar,101,IN,India,26.26467,86.27993,झंझारपुर,city,,,31283.0,Asia/Kolkata,Q607709
132288,Jogbani,4037,BR,Bihar,101,IN,India,26.39905,87.26525,जोगबनी,city,,,39281.0,Asia/Kolkata,Q2286929
132337,Kaimur,4037,BR,Bihar,101,IN,India,25.05077,83.58261,कैमूर जिला,district,,,1626384.0,Asia/Kolkata,Q77367
132417,Kasba,4037,BR,Bihar,101,IN,India,25.85643,87.53836,कस्बा,city,,,30421.0,Asia/Kolkata,Q2231019
132423,Katihar,4037,BR,Bihar,101,IN,India,25.5,87.6,कटिहार,city,,,3071029.0,Asia/Kolkata,Q2375700
132451,Khagaria,4037,BR,Bihar,101,IN,India,25.5022,86.46708,खगरिया,city,,,49982.0,Asia/Kolkata,Q2070587
132452,Khagaul,4037,BR,Bihar,101,IN,India,25.57898,85.04564,खगौल,city,,,51577.0,Asia/Kolkata,Q2120482
132470,Kharagpur,4037,BR,Bihar,101,IN,India,25.12446,86.55578,खड़गपुर,city,,,31385.0,Asia/Kolkata,Q2120147
132510,Khusropur,4037,BR,Bihar,101,IN,India,25.48174,85.38492,खुसरोपुर,city,,,15731.0,Asia/Kolkata,Q2235607
132529,Kishanganj,4037,BR,Bihar,101,IN,India,26.3,88.0,किशनगंज,city,,,0.0,Asia/Kolkata,Q747765
132620,Koath,4037,BR,Bihar,101,IN,India,25.32643,84.25983,कोआथ,city,,,18890.0,Asia/Kolkata,Q2239138
132548,Koelwar,4037,BR,Bihar,101,IN,India,25.58055,84.79751,कोइलवर,city,,,25494.0,Asia/Kolkata,Q2239007
132744,Lakhisarai,4037,BR,Bihar,101,IN,India,25.2,86.2,लखीसराय,city,,,99979.0,Asia/Kolkata,Q77505
132795,Lalganj,4037,BR,Bihar,101,IN,India,25.86894,85.17394,लालगंज,city,,,37098.0,Asia/Kolkata,Q720183
132781,Luckeesarai,4037,BR,Bihar,101,IN,India,25.1765,86.0947,लक्कीसराय,city,,,99979.0,Asia/Kolkata,Q1929578
132812,Madhepura,4037,BR,Bihar,101,IN,India,25.8,87.0,मधेपुरा,city,,,54472.0,Asia/Kolkata,Q77746
132815,Madhubani,4037,BR,Bihar,101,IN,India,26.35367,86.07169,मधुबनी,city,,,75736.0,Asia/Kolkata,Q2767858
132849,Maharajgani,4037,BR,Bihar,101,IN,India,26.11017,84.50365,महाराजगनी,city,,,24282.0,Asia/Kolkata,Q2733647
132859,Mairwa,4037,BR,Bihar,101,IN,India,26.23218,84.16349,मैरवा,city,,,23565.0,Asia/Kolkata,Q2563828
132901,Maner,4037,BR,Bihar,101,IN,India,25.64602,84.87291,मनेर,city,,,40068.0,Asia/Kolkata,Q2317827
132911,Manihari,4037,BR,Bihar,101,IN,India,25.33891,87.61998,मनिहारी,city,,,26629.0,Asia/Kolkata,Q2453339
132935,Marhaura,4037,BR,Bihar,101,IN,India,25.97349,84.86796,मढ़ौरा,city,,,29932.0,Asia/Kolkata,Q2560728
132938,Masaurhi Buzurg,4037,BR,Bihar,101,IN,India,25.35417,85.03195,मसौढ़ी बुज़ुर्ग,city,,,59803.0,Asia/Kolkata,Q2453418
132984,Mohiuddi nagar,4037,BR,Bihar,101,IN,India,25.57374,85.66944,मोहिउद्दी नगर,city,,,14938.0,Asia/Kolkata,Q2564073
132988,Mokameh,4037,BR,Bihar,101,IN,India,25.39662,85.9219,मोकामेह,city,,,60678.0,Asia/Kolkata,Q2453482
132991,Monghyr,4037,BR,Bihar,101,IN,India,25.37459,86.47455,मुंगेर,city,,,213303.0,Asia/Kolkata,Q36796
133005,Mothihari,4037,BR,Bihar,101,IN,India,26.64862,84.91656,मोतिहारी,city,,,126158.0,Asia/Kolkata,Q1774606
133032,Munger,4037,BR,Bihar,101,IN,India,25.36099,86.46515,मुंगेर,city,,,213303.0,Asia/Kolkata,Q258280
133037,Murliganj,4037,BR,Bihar,101,IN,India,25.8969,86.99577,मुरलीगंज,city,,,28691.0,Asia/Kolkata,Q2560591
133052,Muzaffarpur,4037,BR,Bihar,101,IN,India,26.16667,85.41667,मुजफ्फरपुर,city,,,333200.0,Asia/Kolkata,Q77731
133105,Nabinagar,4037,BR,Bihar,101,IN,India,24.60681,84.12624,नबीनगर,city,,,23984.0,Asia/Kolkata,Q2453472
133262,Nalanda,4037,BR,Bihar,101,IN,India,25.25,85.58333,नालंदा,city,,,2877653.0,Asia/Kolkata,Q77633
133279,Nasriganj,4037,BR,Bihar,101,IN,India,25.0514,84.32839,नासरीगंज,city,,,23819.0,Asia/Kolkata,Q6967322
133182,Naugachhia,4037,BR,Bihar,101,IN,India,25.38807,87.09906,नौगछिया,city,,,49069.0,Asia/Kolkata,Q2453298
133192,Nawada,4037,BR,Bihar,101,IN,India,24.75,85.5,नवादा,city,,,98029.0,Asia/Kolkata,Q100067
133222,Nirmali,4037,BR,Bihar,101,IN,India,26.31397,86.58537,निर्मली,city,,,20189.0,Asia/Kolkata,Q545770
133373,Pashchim Champaran,4037,BR,Bihar,101,IN,India,27.0,84.5,पश्चिम चंपारण,city,,,,Asia/Kolkata,Q1390016
133386,Patna,4037,BR,Bihar,101,IN,India,25.41667,85.16667,पटना,adm1,,,1684222.0,Asia/Kolkata,Q100077
133459,Piro,4037,BR,Bihar,101,IN,India,25.33218,84.40454,पिरो,city,,,33785.0,Asia/Kolkata,Q2228653
133509,Pupri,4037,BR,Bihar,101,IN,India,26.47079,85.70311,पुपरी,city,,,15129.0,Asia/Kolkata,Q2453330
133570,Purba Champaran,4037,BR,Bihar,101,IN,India,26.58333,84.83333,पूर्वी चंपारण,city,,,,Asia/Kolkata,Q2718070
133512,Purnia,4037,BR,Bihar,101,IN,India,25.81614,87.40708,पूर्णिया,city,,,310817.0,Asia/Kolkata,Q100082
133581,Rafiganj,4037,BR,Bihar,101,IN,India,24.81757,84.63445,रफीगंज,city,,,35536.0,Asia/Kolkata,Q2560697
133582,Raghunathpur,4037,BR,Bihar,101,IN,India,25.64492,87.91762,रघुनाथपुर,city,,,6355.0,Asia/Kolkata,Q2560697
133678,Rajgir,4037,BR,Bihar,101,IN,India,25.02828,85.42079,राजगीर,city,,,41587.0,Asia/Kolkata,Q863683
133701,Ramnagar,4037,BR,Bihar,101,IN,India,27.16371,84.32342,रामनगर,city,,,51244.0,Asia/Kolkata,Q2228976
133621,Raxaul,4037,BR,Bihar,101,IN,India,26.97982,84.85065,रक्सौल,city,,,55536.0,Asia/Kolkata,Q2087576
133632,Revelganj,4037,BR,Bihar,101,IN,India,25.78976,84.63596,रेवेलगंज,city,,,39039.0,Asia/Kolkata,Q2453460
133648,Rohtas,4037,BR,Bihar,101,IN,India,24.97941,84.02774,रोहतास,city,,,2959918.0,Asia/Kolkata,Q100085
133656,Rusera,4037,BR,Bihar,101,IN,India,25.75355,86.02597,रुसेरा,city,,,28781.0,Asia/Kolkata,Q2717615
133748,Sagauli,4037,BR,Bihar,101,IN,India,26.7639,84.74341,सागौली,city,,,38815.0,Asia/Kolkata,Q7399079
133749,Saharsa,4037,BR,Bihar,101,IN,India,25.87498,86.59611,सहरसा,city,,,156540.0,Asia/Kolkata,Q1949422
133767,Samastipur,4037,BR,Bihar,101,IN,India,25.75,85.91667,समस्तीपुर,city,,,67925.0,Asia/Kolkata,Q2734222
134076,Saran,4037,BR,Bihar,101,IN,India,25.91667,84.75,सरन,city,,,3951862.0,Asia/Kolkata,Q100146
133852,Shahbazpur,4037,BR,Bihar,101,IN,India,26.30511,87.28865,शाहबाजपुर,city,,,38000.0,Asia/Kolkata,Q208000
133902,Shahpur,4037,BR,Bihar,101,IN,India,25.60293,84.40412,शाहपुर,city,,,17767.0,Asia/Kolkata,Q1925497
133858,Sheikhpura,4037,BR,Bihar,101,IN,India,25.13073,85.78176,शेखपुरा,city,,,62927.0,Asia/Kolkata,Q2566517
133860,Sheohar,4037,BR,Bihar,101,IN,India,26.5,85.3,शिवहर,city,,,656246.0,Asia/Kolkata,Q2483944
133863,Sherghati,4037,BR,Bihar,101,IN,India,24.5595,84.79162,शेरघाटी,city,,,40666.0,Asia/Kolkata,Q2560001
133933,Silao,4037,BR,Bihar,101,IN,India,25.08358,85.42804,सिलाओ,city,,,25674.0,Asia/Kolkata,Q1617473
134089,Sitamarhi,4037,BR,Bihar,101,IN,India,26.66667,85.5,सीतामढ़ी,city,,,3423574.0,Asia/Kolkata,Q1278427
133977,Siwan,4037,BR,Bihar,101,IN,India,26.22096,84.35609,सिवान,city,,,135066.0,Asia/Kolkata,Q2234098
134049,Supaul,4037,BR,Bihar,101,IN,India,26.25,86.8,सुपौल,city,,,2229076.0,Asia/Kolkata,Q100139
134121,Teghra,4037,BR,Bihar,101,IN,India,25.49043,85.94001,तेघरा,city,,,56234.0,Asia/Kolkata,Q1006270
134127,Tekari,4037,BR,Bihar,101,IN,India,24.94253,84.84265,तेकारी,city,,,21324.0,Asia/Kolkata,Q2733597
134163,Thakurganj,4037,BR,Bihar,101,IN,India,26.42742,88.13112,ठाकुरगंज,city,,,18348.0,Asia/Kolkata,Q720796
134314,Vaishali,4037,BR,Bihar,101,IN,India,25.75,85.41667,वैशाली,city,,,3495021.0,Asia/Kolkata,Q100130
134417,Waris Aliganj,4037,BR,Bihar,101,IN,India,25.0172,85.64047,वारिस अलीगंज,city,,,35243.0,Asia/Kolkata,Q2006496
58190,Chandigarh,4031,CH,Chandigarh,101,IN,India,30.73629,76.7884,चंडीगढ़,adm1,,,1055450.0,Asia/Kolkata,Q2446932
57619,Akaltara,4040,CT,Chhattisgarh,101,IN,India,22.02463,82.42641,अकालतारा,city,,,22712.0,Asia/Kolkata,Q582949
57672,Ambagarh Chauki,4040,CT,Chhattisgarh,101,IN,India,20.77644,80.74608,अंबागढ़ चौकी,city,,,9889.0,Asia/Kolkata,Q590056
57670,Ambikapur,4040,CT,Chhattisgarh,101,IN,India,23.11892,83.19537,अंबिकापुर,adm2,,,121071.0,Asia/Kolkata,Q2088480
57728,Arang,4040,CT,Chhattisgarh,101,IN,India,21.19639,81.96912,आरंग,city,,,19091.0,Asia/Kolkata,Q589854
57812,Baikunthpur,4040,CT,Chhattisgarh,101,IN,India,23.26206,82.56051,बैकुंठपुर,city,,,28431.0,Asia/Kolkata,Q623920
57830,Balod,4040,CT,Chhattisgarh,101,IN,India,20.73081,81.20578,बालोद,adm2,,,23648.0,Asia/Kolkata,Q921009
57831,Baloda,4040,CT,Chhattisgarh,101,IN,India,22.1389,82.48171,बलोदा,city,,,13630.0,Asia/Kolkata,Q622838
57832,Baloda Bazar,4040,CT,Chhattisgarh,101,IN,India,21.65678,82.16062,बलौदा बाजार,adm2,,,26632.0,Asia/Kolkata,Q625680
57898,Basna,4040,CT,Chhattisgarh,101,IN,India,21.27885,82.8267,बसना,city,,,10345.0,Asia/Kolkata,Q708834
57900,Bastar,4040,CT,Chhattisgarh,101,IN,India,19.26794,81.73828,बस्तर,city,,,1413199.0,Asia/Kolkata,Q100152
57931,Bemetara,4040,CT,Chhattisgarh,101,IN,India,21.71556,81.53423,बेमेतरा,adm2,,,28536.0,Asia/Kolkata,Q4885104
58013,Bhanpuri,4040,CT,Chhattisgarh,101,IN,India,21.0919,80.93218,भानपुरी,city,,,17270.0,Asia/Kolkata,Q720123
58015,Bhatapara,4040,CT,Chhattisgarh,101,IN,India,21.735,81.94711,भाटापारा,city,,,57537.0,Asia/Kolkata,Q757847
57969,Bhatgaon,4040,CT,Chhattisgarh,101,IN,India,21.15,81.7,भटगांव,city,,,8044.0,Asia/Kolkata,Q13403597
57981,Bhilai,4040,CT,Chhattisgarh,101,IN,India,21.20919,81.4285,भिलाई,city,,,625700.0,Asia/Kolkata,Q242144
58032,Bijapur,4040,CT,Chhattisgarh,101,IN,India,18.84322,80.7761,बीजापुर,city,,,16129.0,Asia/Kolkata,Q100164
58055,Bilaspur,4040,CT,Chhattisgarh,101,IN,India,22.38333,82.13333,बिलासपुर,city,,,365579.0,Asia/Kolkata,Q100157
131593,Champa,4040,CT,Chhattisgarh,101,IN,India,22.03532,82.64234,चंपा,city,,,45256.0,Asia/Kolkata,Q3666066
131538,Chhuikhadan,4040,CT,Chhattisgarh,101,IN,India,21.52316,80.99788,छुईखदान,city,,,7093.0,Asia/Kolkata,Q1105863
153519,Dantewada,4040,CT,Chhattisgarh,101,IN,India,18.899848,81.3386752,दंतेवाड़ा,city,,,533638.0,Asia/Kolkata,Q3921198
131690,Deori,4040,CT,Chhattisgarh,101,IN,India,21.45,82.61667,देवरी,city,,,12286.0,Asia/Kolkata,Q1190738
131712,Dhamtari,4040,CT,Chhattisgarh,101,IN,India,20.70718,81.54874,धमतरी,city,,,101677.0,Asia/Kolkata,Q1264075
131787,Dongargaon,4040,CT,Chhattisgarh,101,IN,India,20.97172,80.85077,डोंगरगांव,city,,,14693.0,Asia/Kolkata,Q1387439
131788,Dongargarh,4040,CT,Chhattisgarh,101,IN,India,21.18893,80.75459,डोंगरगढ़,city,,,37372.0,Asia/Kolkata,Q1387087
131801,Durg,4040,CT,Chhattisgarh,101,IN,India,21.15,81.4,दुर्ग,city,,,268806.0,Asia/Kolkata,Q100182
131897,Gandai,4040,CT,Chhattisgarh,101,IN,India,21.66667,81.10013,गंडई,city,,,13278.0,Asia/Kolkata,Q1656707
131926,Gariaband,4040,CT,Chhattisgarh,101,IN,India,20.63323,82.06221,गरियाबंद,adm2,,,10517.0,Asia/Kolkata,Q536870
131927,Gaurela,4040,CT,Chhattisgarh,101,IN,India,22.75449,81.90107,गौरेला,city,,,18165.0,Asia/Kolkata,Q536870
131938,Gharghoda,4040,CT,Chhattisgarh,101,IN,India,22.17427,83.3517,घरघोडा,city,,,9455.0,Asia/Kolkata,Q1706460
132048,Gidam,4040,CT,Chhattisgarh,101,IN,India,18.97431,81.39894,गिदम,city,,,7440.0,Asia/Kolkata,Q41543
132186,Jagdalpur,4040,CT,Chhattisgarh,101,IN,India,19.08136,82.02131,जगदलपुर,city,,,125463.0,Asia/Kolkata,Q1006363
132312,Janjgir,4040,CT,Chhattisgarh,101,IN,India,22.00922,82.5778,जांजगीर,city,,,32833.0,Asia/Kolkata,Q3634114
132240,Janjgir-Champa,4040,CT,Chhattisgarh,101,IN,India,21.9,82.7,जांजगीर-चंपा,city,,,,Asia/Kolkata,Q2575633
132244,Jashpur,4040,CT,Chhattisgarh,101,IN,India,22.78495,83.84573,जशपुर,city,,,851669.0,Asia/Kolkata,Q2577551
132245,Jashpurnagar,4040,CT,Chhattisgarh,101,IN,India,22.88783,84.13864,जशपुर,city,,,28301.0,Asia/Kolkata,Q2577551
132318,Junagarh,4040,CT,Chhattisgarh,101,IN,India,19.85993,82.93385,जूनागढ़,city,,,19656.0,Asia/Kolkata,Q1937526
132319,Kabeerdham,4040,CT,Chhattisgarh,101,IN,India,22.1,81.2,कबीरधाम,city,,,,Asia/Kolkata,Q2450255
132704,Kanker,4040,CT,Chhattisgarh,101,IN,India,20.27193,81.49177,कांकेर,city,,,37442.0,Asia/Kolkata,Q609848
132421,Katghora,4040,CT,Chhattisgarh,101,IN,India,22.50247,82.54279,कटघोरा,city,,,22690.0,Asia/Kolkata,Q2317239
132433,Kawardha,4040,CT,Chhattisgarh,101,IN,India,22.00853,81.23148,कवर्धा,adm2,,,46657.0,Asia/Kolkata,Q1929610
132456,Khairagarh,4040,CT,Chhattisgarh,101,IN,India,21.41859,80.97942,खैरागढ़,city,,,22564.0,Asia/Kolkata,Q3195939
132463,Khamharia,4040,CT,Chhattisgarh,101,IN,India,20.976,82.25116,खम्हरिया,city,,,6998.0,Asia/Kolkata,Q1740527
132480,Kharod,4040,CT,Chhattisgarh,101,IN,India,21.7442,82.5788,खरोद,city,,,10193.0,Asia/Kolkata,Q2120445
132481,Kharsia,4040,CT,Chhattisgarh,101,IN,India,21.98953,83.10476,खरसिया,city,,,18939.0,Asia/Kolkata,Q2317203
132525,Kirandul,4040,CT,Chhattisgarh,101,IN,India,18.63649,81.25827,किरंदुल,city,,,19053.0,Asia/Kolkata,Q2237173
132565,Kondagaon,4040,CT,Chhattisgarh,101,IN,India,19.59083,81.664,कोंडागांव,adm2,,,30921.0,Asia/Kolkata,Q2234676
132581,Korba,4040,CT,Chhattisgarh,101,IN,India,22.5,82.6,कोरबा,city,,,419146.0,Asia/Kolkata,Q2299121
132583,Koria,4040,CT,Chhattisgarh,101,IN,India,23.48326,82.15037,कोरिया,city,,,,Asia/Kolkata,Q2299121
132612,Kota,4040,CT,Chhattisgarh,101,IN,India,22.29507,82.02366,कोटा,city,,,18405.0,Asia/Kolkata,Q2236924
132596,Kotaparh,4040,CT,Chhattisgarh,101,IN,India,19.14256,82.32536,कोटापढ़,city,,,16326.0,Asia/Kolkata,Q279106
132641,Kumhari,4040,CT,Chhattisgarh,101,IN,India,21.26667,81.51667,कुम्हारी,city,,,38334.0,Asia/Kolkata,Q2234421
132661,Kurud,4040,CT,Chhattisgarh,101,IN,India,20.83073,81.72212,कुरुद,city,,,13783.0,Asia/Kolkata,Q591621
132777,Lormi,4040,CT,Chhattisgarh,101,IN,India,22.27434,81.70181,लोर्मी,city,,,15156.0,Asia/Kolkata,Q303819
132827,Mahasamund,4040,CT,Chhattisgarh,101,IN,India,21.2,82.5,महासमुंद,city,,,47203.0,Asia/Kolkata,Q2450240
133031,Mungeli,4040,CT,Chhattisgarh,101,IN,India,22.06566,81.68543,मुंगेली,adm2,,,36450.0,Asia/Kolkata,Q2452734
133163,Narayanpur,4040,CT,Chhattisgarh,101,IN,India,19.60426,81.08119,नारायणपुर,city,,,139820.0,Asia/Kolkata,Q2322000
133168,Narharpur,4040,CT,Chhattisgarh,101,IN,India,20.44892,81.62004,नरहरपुर,city,,,6500.0,Asia/Kolkata,Q15261015
133346,Pandaria,4040,CT,Chhattisgarh,101,IN,India,22.22495,81.40994,पंडरिया,city,,,16165.0,Asia/Kolkata,Q520157
133540,Pandatarai,4040,CT,Chhattisgarh,101,IN,India,22.18714,81.32815,पंडातराई,city,,,11000.0,Asia/Kolkata,Q7130519
133375,Pasan,4040,CT,Chhattisgarh,101,IN,India,22.84412,82.19823,पासन,city,,,30928.0,Asia/Kolkata,Q2720089
133552,Patan,4040,CT,Chhattisgarh,101,IN,India,21.03333,81.53333,पाटन,city,,,10133.0,Asia/Kolkata,Q3786789
133379,Pathalgaon,4040,CT,Chhattisgarh,101,IN,India,22.55656,83.46355,पत्थलगांव,city,,,16613.0,Asia/Kolkata,Q2558945
133405,Pendra,4040,CT,Chhattisgarh,101,IN,India,22.77548,81.95968,पेंड्रा,city,,,14120.0,Asia/Kolkata,Q2558897
133463,Pithora,4040,CT,Chhattisgarh,101,IN,India,21.25021,82.51707,पिथौरा,city,,,8428.0,Asia/Kolkata,Q745401
133587,Raigarh,4040,CT,Chhattisgarh,101,IN,India,22.08582,83.30603,रायगढ़,city,,,150019.0,Asia/Kolkata,Q2286310
133590,Raipur,4040,CT,Chhattisgarh,101,IN,India,21.25621,81.69022,रायपुर,city,,,1027264.0,Asia/Kolkata,Q2295914
133668,Raj Nandgaon,4040,CT,Chhattisgarh,101,IN,India,21.16667,81.0,राज नंदगांव,city,,,,Asia/Kolkata,Q2551329
133711,Ramanuj Ganj,4040,CT,Chhattisgarh,101,IN,India,23.80637,83.69981,रामानुज गंज,city,,,11893.0,Asia/Kolkata,Q2545077
133616,Ratanpur,4040,CT,Chhattisgarh,101,IN,India,22.2866,82.16823,रतनपुर,city,,,24636.0,Asia/Kolkata,Q720204
133761,Sakti,4040,CT,Chhattisgarh,101,IN,India,22.02662,82.96091,शक्ति,city,,,21955.0,Asia/Kolkata,Q2734644
133801,Saraipali,4040,CT,Chhattisgarh,101,IN,India,21.3153,83.00629,सरायपाली,city,,,20043.0,Asia/Kolkata,Q2559019
134077,Sarangarh,4040,CT,Chhattisgarh,101,IN,India,21.58614,83.0785,सारंगढ़,city,,,14954.0,Asia/Kolkata,Q2317301
133845,Seorinarayan,4040,CT,Chhattisgarh,101,IN,India,21.72055,82.59344,शिवरीनारायण,city,,,9707.0,Asia/Kolkata,Q2545959
133940,Simga,4040,CT,Chhattisgarh,101,IN,India,21.6281,81.70376,सिमगा,city,,,16027.0,Asia/Kolkata,Q2734480
134051,Surguja,4040,CT,Chhattisgarh,101,IN,India,22.89624,83.09631,सरगुजा,city,,,2359886.0,Asia/Kolkata,Q1805075
134099,Takhatpur,4040,CT,Chhattisgarh,101,IN,India,22.12915,81.86959,तखतपुर,city,,,19968.0,Asia/Kolkata,Q2734491
134273,Umarkot,4040,CT,Chhattisgarh,101,IN,India,19.66529,82.20629,उमरकोट,city,,,28993.0,Asia/Kolkata,Q2718792
134299,Uttar Bastar Kanker,4040,CT,Chhattisgarh,101,IN,India,20.2,81.1,उत्तर बस्तर कांकेर,city,,,,Asia/Kolkata,Q2231121
134459,Amli,4033,DH,Dadra and Nagar Haveli and Daman and Diu,101,IN,India,20.28333,73.01667,अमली,city,,,33369.0,Asia/Kolkata,Q367624
131639,Dadra,4033,DH,Dadra and Nagar Haveli and Daman and Diu,101,IN,India,20.32504,72.96618,दादर,city,,,13039.0,Asia/Kolkata,Q1190879
131640,Dadra & Nagar Haveli,4033,DH,Dadra and Nagar Haveli and Daman and Diu,101,IN,India,20.20651,73.00811,दादरा और नगर हवेली,city,,,,Asia/Kolkata,Q10752928
131649,Daman,4033,DH,Dadra and Nagar Haveli and Daman and Diu,101,IN,India,20.41431,72.83236,दमन,adm1,,,44282.0,Asia/Kolkata,Q463252
131779,Diu,4033,DH,Dadra and Nagar Haveli and Daman and Diu,101,IN,India,20.72081,70.93989,दीव,city,,,23991.0,Asia/Kolkata,Q2552347
133937,Silvassa,4033,DH,Dadra and Nagar Haveli and Daman and Diu,101,IN,India,20.27386,72.99673,सिल्वासा,adm2,,,98265.0,Asia/Kolkata,Q318404
57655,Alipur,4021,DL,Delhi,101,IN,India,28.79862,77.13314,अलीपुर,adm2,,,20736.0,Asia/Kolkata,Q766918
57909,Bawana,4021,DL,Delhi,101,IN,India,28.7982,77.03431,बवाना,city,,,73680.0,Asia/Kolkata,Q760346
58171,Central Delhi,4021,DL,Delhi,101,IN,India,28.64857,77.21895,मध्य दिल्ली,adm1,,,582320.0,Asia/Kolkata,Q107941
131679,Delhi,4021,DL,Delhi,101,IN,India,28.65195,77.23149,दिल्ली,adm1,,,11034555.0,Asia/Kolkata,Q1353
131687,Deoli,4021,DL,Delhi,101,IN,India,28.50254,77.23117,देवली,city,,,169122.0,Asia/Kolkata,Q2429122
131821,East Delhi,4021,DL,Delhi,101,IN,India,28.66242,77.29122,पूर्वी दिल्ली,city,,,1709346.0,Asia/Kolkata,Q107960
132406,Karol Bagh,4021,DL,Delhi,101,IN,India,28.65136,77.19072,करोल बाग,section,,,505241.0,Asia/Kolkata,Q13641055
133126,Najafgarh,4021,DL,Delhi,101,IN,India,28.60922,76.97982,नजफगढ़,city,,,1365000.0,Asia/Kolkata,Q2544256
133269,Nangloi Jat,4021,DL,Delhi,101,IN,India,28.67957,77.06799,नांगलोई जाट,city,,,205596.0,Asia/Kolkata,Q375592
133165,Narela,4021,DL,Delhi,101,IN,India,28.85267,77.09288,नरेला,city,,,800000.0,Asia/Kolkata,Q6965751
133210,New Delhi,4021,DL,Delhi,101,IN,India,28.63576,77.22445,नई दिल्ली,capital,,,249998.0,Asia/Kolkata,Q987
133234,North Delhi,4021,DL,Delhi,101,IN,India,28.6692,77.22273,उत्तरी दिल्ली,adm1,,,887978.0,Asia/Kolkata,Q693367
133236,North East Delhi,4021,DL,Delhi,101,IN,India,28.6869,77.30195,उत्तर पूर्वी दिल्ली,city,,,2241624.0,Asia/Kolkata,Q429329
133243,North West Delhi,4021,DL,Delhi,101,IN,India,28.70113,77.10154,उत्तर पश्चिम दिल्ली,city,,,3656539.0,Asia/Kolkata,Q766125
133461,Pitampura,4021,DL,Delhi,101,IN,India,28.68964,77.13126,पीतमपुरा,city,,,2000.0,Asia/Kolkata,Q2228786
133645,Rohini,4021,DL,Delhi,101,IN,India,28.74322,77.06778,रोहिणी,section,,,860000.0,Asia/Kolkata,Q15272986
134007,South Delhi,4021,DL,Delhi,101,IN,India,28.53009,77.25174,दक्षिण दिल्ली,city,,,2731929.0,Asia/Kolkata,Q2061938
134012,South West Delhi,4021,DL,Delhi,101,IN,India,28.5806,77.0672,दक्षिण पश्चिम दिल्ली,city,,,2292958.0,Asia/Kolkata,Q2379189
134404,West Delhi,4021,DL,Delhi,101,IN,India,28.65655,77.10068,पश्चिमी दिल्ली,city,,,2543243.0,Asia/Kolkata,Q549807
57638,Aldona,4009,GA,Goa,101,IN,India,15.59337,73.87482,एल्डोना,city,,,6606.0,Asia/Kolkata,Q584939
57727,Arambol,4009,GA,Goa,101,IN,India,15.68681,73.70449,अरम्बोल,city,,,10000.0,Asia/Kolkata,Q584823
57795,Baga,4009,GA,Goa,101,IN,India,15.56517,73.75517,बागा,city,,,2000.0,Asia/Kolkata,Q3412838
57836,Bambolim,4009,GA,Goa,101,IN,India,15.46361,73.8531,बाम्बोलिम,city,,,6885.0,Asia/Kolkata,Q627037
57845,Bandora,4009,GA,Goa,101,IN,India,15.40823,73.98129,बंदोरा,city,,,12819.0,Asia/Kolkata,Q720252
57932,Benaulim,4009,GA,Goa,101,IN,India,15.26435,73.92812,बेनौलिम,city,,,11919.0,Asia/Kolkata,Q2564851
58165,Calangute,4009,GA,Goa,101,IN,India,15.5439,73.7553,कलंगुट,city,,,17446.0,Asia/Kolkata,Q861976
58167,Candolim,4009,GA,Goa,101,IN,India,15.51807,73.76259,कैंडोलिम,city,,,9197.0,Asia/Kolkata,Q858424
58169,Carapur,4009,GA,Goa,101,IN,India,15.56588,73.98713,कारापुर,city,,,5575.0,Asia/Kolkata,Q861379
58170,Cavelossim,4009,GA,Goa,101,IN,India,15.17255,73.94194,कैवेलोसिम,city,,,11983.0,Asia/Kolkata,Q5054993
131542,Chicalim,4009,GA,Goa,101,IN,India,15.39835,73.84216,चिकालिम,city,,,7787.0,Asia/Kolkata,Q1105928
131559,Chinchinim,4009,GA,Goa,101,IN,India,15.21447,73.97555,चिनचिनिम,city,,,7355.0,Asia/Kolkata,Q1105849
131622,Colovale,4009,GA,Goa,101,IN,India,15.63522,73.82426,कोलोवेल,city,,,5723.0,Asia/Kolkata,Q939521
131623,Colva,4009,GA,Goa,101,IN,India,15.27976,73.92285,कोल्वा,city,,,12000.0,Asia/Kolkata,Q3440760
131625,Cortalim,4009,GA,Goa,101,IN,India,15.40247,73.90881,कोर्टालिम,city,,,9080.0,Asia/Kolkata,Q3440760
131630,Cuncolim,4009,GA,Goa,101,IN,India,15.1773,73.99392,कुनकोलिम,city,,,16623.0,Asia/Kolkata,Q1190666
131631,Curchorem,4009,GA,Goa,101,IN,India,15.26349,74.10875,कर्चोरेम,city,,,22730.0,Asia/Kolkata,Q1190690
131632,Curti,4009,GA,Goa,101,IN,India,15.41667,74.01667,कर्टी,city,,,16385.0,Asia/Kolkata,Q12420204
131672,Davorlim,4009,GA,Goa,101,IN,India,15.27221,73.99242,दावोरलिम,city,,,15350.0,Asia/Kolkata,Q1192143
131764,Dicholi,4009,GA,Goa,101,IN,India,15.59319,73.94571,डिचोली,adm3,,,16986.0,Asia/Kolkata,Q796819
131960,Goa Velha,4009,GA,Goa,101,IN,India,15.44384,73.88572,गोवा वेल्हा,city,,,5656.0,Asia/Kolkata,Q553907
132015,Guirim,4009,GA,Goa,101,IN,India,15.57552,73.80722,गुइरिम,city,,,7057.0,Asia/Kolkata,Q1708211
132297,Jua,4009,GA,Goa,101,IN,India,15.5307,73.95047,जुआ,city,,,5470.0,Asia/Kolkata,Q1026878
132705,Kankon,4009,GA,Goa,101,IN,India,15.02698,74.04617,कंकोन,city,,,12444.0,Asia/Kolkata,Q861954
132811,Madgaon,4009,GA,Goa,101,IN,India,15.27501,73.95786,मडगांव,city,,,87650.0,Asia/Kolkata,Q515117
133086,Mapuca,4009,GA,Goa,101,IN,India,15.59154,73.80898,मापुका,city,,,7057.0,Asia/Kolkata,Q2087705
132997,Morjim,4009,GA,Goa,101,IN,India,15.63097,73.73903,मोरजिम,city,,,6760.0,Asia/Kolkata,Q6912471
132998,Mormugao,4009,GA,Goa,101,IN,India,15.38914,73.81491,मोरमुगाओ,city,,,94393.0,Asia/Kolkata,Q1814480
133185,Navelim,4009,GA,Goa,101,IN,India,15.53333,73.98333,नवेलिम,city,,,12323.0,Asia/Kolkata,Q2475087
133238,North Goa,4009,GA,Goa,101,IN,India,15.53397,73.96408,उत्तरी गोवा,city,,,5354.0,Asia/Kolkata,Q108234
133330,Palle,4009,GA,Goa,101,IN,India,15.46667,74.08333,पल्ले,city,,,6043.0,Asia/Kolkata,Q1320784
133342,Panaji,4009,GA,Goa,101,IN,India,15.49574,73.82624,पणजी,adm1,,,70991.0,Asia/Kolkata,Q214681
133422,Pernem,4009,GA,Goa,101,IN,India,15.723,73.79511,पेरनेम,city,,,5555.0,Asia/Kolkata,Q2736166
133471,Ponda,4009,GA,Goa,101,IN,India,15.40341,74.01519,पोंडा,city,,,22664.0,Asia/Kolkata,Q2287007
133572,Quepem,4009,GA,Goa,101,IN,India,15.2128,74.0772,क्यूपेम,city,,,14795.0,Asia/Kolkata,Q2561452
133573,Queula,4009,GA,Goa,101,IN,India,15.39011,73.98557,क्यूउला,city,,,6852.0,Asia/Kolkata,Q2734444
133585,Raia,4009,GA,Goa,101,IN,India,15.30499,73.97096,राया,city,,,10706.0,Asia/Kolkata,Q2573077
133764,Saligao,4009,GA,Goa,101,IN,India,15.55359,73.79036,सालिगांव,city,,,6280.0,Asia/Kolkata,Q2734462
133777,Sancoale,4009,GA,Goa,101,IN,India,15.37794,73.90352,सैंकोले,city,,,21923.0,Asia/Kolkata,Q2573142
133786,Sanguem,4009,GA,Goa,101,IN,India,15.22901,74.15149,संगुएम,city,,,6444.0,Asia/Kolkata,Q614055
133791,Sanquelim,4009,GA,Goa,101,IN,India,15.56422,74.00799,सांक्वेलिम,city,,,13651.0,Asia/Kolkata,Q720140
133795,Sanvordem,4009,GA,Goa,101,IN,India,15.26269,74.11965,संवोर्देम,city,,,5103.0,Asia/Kolkata,Q720846
133850,Serula,4009,GA,Goa,101,IN,India,15.54774,73.84329,सेरूला,city,,,12908.0,Asia/Kolkata,Q2726292
133987,Solim,4009,GA,Goa,101,IN,India,15.61521,73.7674,सोलिम,city,,,10936.0,Asia/Kolkata,Q2734452
134010,South Goa,4009,GA,Goa,101,IN,India,15.20425,74.16733,दक्षिण गोवा,city,,,640537.0,Asia/Kolkata,Q108244
134101,Taleigao,4009,GA,Goa,101,IN,India,15.46915,73.83285,तलेइगाओ,city,,,17148.0,Asia/Kolkata,Q7679155
134311,Vagator,4009,GA,Goa,101,IN,India,15.59766,73.74496,वागाटोर,city,,,14986.0,Asia/Kolkata,Q11909
134321,Valpoy,4009,GA,Goa,101,IN,India,15.53239,74.13671,वालपोय,city,,,8532.0,Asia/Kolkata,Q2734533
134329,Varca,4009,GA,Goa,101,IN,India,15.23237,73.94311,वर्का,city,,,5439.0,Asia/Kolkata,Q2558931
134333,Vasco da Gama,4009,GA,Goa,101,IN,India,15.39585,73.81568,वास्को डिगामा,city,,,100485.0,Asia/Kolkata,Q978780
57588,Abrama,4030,GJ,Gujarat,101,IN,India,20.85865,72.90648,अब्रामा,city,,,21000.0,Asia/Kolkata,Q490916
57591,Adalaj,4030,GJ,Gujarat,101,IN,India,23.16453,72.58107,अडालज,city,,,11957.0,Asia/Kolkata,Q2350169
147572,Agol,4030,GJ,Gujarat,101,IN,India,23.15,72.26666667,अगोल,city,,,0.0,Asia/Kolkata,Q4693323
57606,Ahmedabad,4030,GJ,Gujarat,101,IN,India,23.02579,72.58727,अहमदाबाद,city,,,7645000.0,Asia/Kolkata,Q1070
57608,Ahwa,4030,GJ,Gujarat,101,IN,India,20.75718,73.68626,अहवा,city,,,15004.0,Asia/Kolkata,Q1964214
147573,Akrund,4030,GJ,Gujarat,101,IN,India,23.28333333,73.11666667,अक्रंद,city,,,0.0,Asia/Kolkata,Q2721831
57683,Amod,4030,GJ,Gujarat,101,IN,India,21.99317,72.87047,अमोद,city,,,18742.0,Asia/Kolkata,Q2724262
57685,Amreli,4030,GJ,Gujarat,101,IN,India,21.50789,71.18323,अमरेली,adm2,,,117967.0,Asia/Kolkata,Q589163
57688,Amroli,4030,GJ,Gujarat,101,IN,India,21.25084,72.83878,अमरोली,city,,,17082.0,Asia/Kolkata,Q2722516
57695,Anand,4030,GJ,Gujarat,101,IN,India,22.4,72.75,आनंद,city,,,130462.0,Asia/Kolkata,Q1798750
57709,Anjar,4030,GJ,Gujarat,101,IN,India,23.11316,70.02671,अंजार,city,,,87183.0,Asia/Kolkata,Q1945434
57710,Ankleshwar,4030,GJ,Gujarat,101,IN,India,21.63236,72.99001,अंकलेश्वर,city,,,89457.0,Asia/Kolkata,Q588924
58104,Babra,4030,GJ,Gujarat,101,IN,India,21.84577,71.30544,बाबरा,city,,,25270.0,Asia/Kolkata,Q8239185
142125,Bagasara,4030,GJ,Gujarat,101,IN,India,21.48333333,70.95,बागासरा,city,,,34521.0,Asia/Kolkata,Q589286
57799,Bagasra,4030,GJ,Gujarat,101,IN,India,21.48719,70.95516,बागसरा,city,,,34521.0,Asia/Kolkata,Q589286
147575,Bakharla,4030,GJ,Gujarat,101,IN,India,21.731517,69.635296,बखरला,city,,,0.0,Asia/Kolkata,Q15196194
147576,Balagam,4030,GJ,Gujarat,101,IN,India,21.36666667,70.1,बालागाम,city,,,0.0,Asia/Kolkata,Q4849800
147577,Balasinor,4030,GJ,Gujarat,101,IN,India,22.955891,73.336499,बालासिनोर,city,,,39330.0,Asia/Kolkata,Q624405
147578,Balisana,4030,GJ,Gujarat,101,IN,India,23.816436,72.257536,बलिसाना,city,,,0.0,Asia/Kolkata,Q2765975
147579,Bamanbore,4030,GJ,Gujarat,101,IN,India,22.41666667,71.01666667,बामनबोर,city,,,0.0,Asia/Kolkata,Q2765812
57858,Banas Kantha,4030,GJ,Gujarat,101,IN,India,24.25,72.5,बनास कांथा,city,,,3120506.0,Asia/Kolkata,Q622613
147580,Bandia,4030,GJ,Gujarat,101,IN,India,23.39604,69.01155,बांदिया,city,,,0.0,Asia/Kolkata,Q625706
58135,Bantva,4030,GJ,Gujarat,101,IN,India,21.48815,70.07576,बंटवा,city,,,15291.0,Asia/Kolkata,Q625718
58140,Bardoli,4030,GJ,Gujarat,101,IN,India,21.12297,73.11151,बारडोली,city,,,60821.0,Asia/Kolkata,Q712003
153924,Bavla,4030,GJ,Gujarat,101,IN,India,22.83672406,72.36277938,बावला,city,,,42458.0,Asia/Kolkata,Q712407
57911,Bedi,4030,GJ,Gujarat,101,IN,India,22.50143,70.04363,बेदी,city,,,21327.0,Asia/Kolkata,Q516587
57948,Bhachau,4030,GJ,Gujarat,101,IN,India,23.29858,70.34279,भचाऊ,city,,,39532.0,Asia/Kolkata,Q759550
147581,Bhadran,4030,GJ,Gujarat,101,IN,India,22.3593,72.9005,भद्रन,city,,,0.0,Asia/Kolkata,Q2767005
147582,Bhandu,4030,GJ,Gujarat,101,IN,India,23.7,72.36666667,भांडू,city,,,0.0,Asia/Kolkata,Q2766842
58014,Bhanvad,4030,GJ,Gujarat,101,IN,India,21.93053,69.78081,भंवड़,city,,,22142.0,Asia/Kolkata,Q720917
57967,Bharuch,4030,GJ,Gujarat,101,IN,India,21.69482,72.9805,भरूच,city,,,169007.0,Asia/Kolkata,Q760153
147583,Bhatha,4030,GJ,Gujarat,101,IN,India,21.18333333,72.76666667,भाठा,city,,,0.0,Asia/Kolkata,Q4901401
57972,Bhavnagar,4030,GJ,Gujarat,101,IN,India,21.76287,72.15331,भावनगर,city,,,605882.0,Asia/Kolkata,Q242992
58017,Bhayavadar,4030,GJ,Gujarat,101,IN,India,21.85523,70.24791,भयावदार,city,,,19458.0,Asia/Kolkata,Q759168
147584,Bhildi,4030,GJ,Gujarat,101,IN,India,24.18333333,72.03333333,भीलडी,city,,,0.0,Asia/Kolkata,Q2767371
147585,Bhojpur Dharampur,4030,GJ,Gujarat,101,IN,India,23.25,69.67,भोजपुर धरमपुर,adm2,,,148834.0,Asia/Kolkata,Q798382
58002,Bhuj,4030,GJ,Gujarat,101,IN,India,23.25397,69.66928,भुज,adm2,,,148834.0,Asia/Kolkata,Q798382
58045,Bilimora,4030,GJ,Gujarat,101,IN,India,20.76957,72.96134,बिलिमोरा,city,,,510879.0,Asia/Kolkata,Q862141
58046,Bilkha,4030,GJ,Gujarat,101,IN,India,21.4415,70.60063,बिल्खा,city,,,14421.0,Asia/Kolkata,Q11909377
58084,Borsad,4030,GJ,Gujarat,101,IN,India,22.40788,72.89817,बोरसाद,city,,,63377.0,Asia/Kolkata,Q858219
58085,Botad,4030,GJ,Gujarat,101,IN,India,22.16917,71.66671,बोटाड,adm2,,,130327.0,Asia/Kolkata,Q858162
58174,Chaklasi,4030,GJ,Gujarat,101,IN,India,22.6532,72.94497,चकलासी,city,,,39581.0,Asia/Kolkata,Q607388
58180,Chalala,4030,GJ,Gujarat,101,IN,India,21.41073,71.16621,चलाला,city,,,17081.0,Asia/Kolkata,Q858287
147586,Chaloda,4030,GJ,Gujarat,101,IN,India,22.8,72.45,चालोदा,city,,,0.0,Asia/Kolkata,Q5069035
147587,Champaner,4030,GJ,Gujarat,101,IN,India,22.4859,73.5371,चंपानेर,city,,,,Asia/Kolkata,Q11913591
131595,Chanasma,4030,GJ,Gujarat,101,IN,India,23.71472,72.11279,चनास्मा,city,,,15932.0,Asia/Kolkata,Q859113
131529,Chhala,4030,GJ,Gujarat,101,IN,India,23.30779,72.77404,छला,city,,,17323.0,Asia/Kolkata,Q2757294
131535,Chhota Udepur,4030,GJ,Gujarat,101,IN,India,22.30401,74.0158,छोटा उदयपुर,adm2,,,25787.0,Asia/Kolkata,Q612721
131548,Chikhli,4030,GJ,Gujarat,101,IN,India,20.75751,73.06268,चिखली,city,,,6953.0,Asia/Kolkata,Q1945471
131582,Chotila,4030,GJ,Gujarat,101,IN,India,22.42347,71.19641,चोटिला,city,,,21364.0,Asia/Kolkata,Q2723942
147588,Chuda,4030,GJ,Gujarat,101,IN,India,22.48333333,71.68333333,चूड़ा,city,,,0.0,Asia/Kolkata,Q724951
147589,Dabhoda,4030,GJ,Gujarat,101,IN,India,23.16666667,72.73333333,दाभोदा,city,,,0.0,Asia/Kolkata,Q5207476
131635,Dabhoi,4030,GJ,Gujarat,101,IN,India,22.18333,73.43333,दभोई,city,,,56253.0,Asia/Kolkata,Q1156554
131642,Dahegam,4030,GJ,Gujarat,101,IN,India,23.16903,72.82161,दहेगाम,city,,,42632.0,Asia/Kolkata,Q582485
142126,Dahod,4030,GJ,Gujarat,101,IN,India,22.52,74.15,दाहोद,city,,,79185.0,Asia/Kolkata,Q1262380
131808,Dakor,4030,GJ,Gujarat,101,IN,India,22.75268,73.14967,डाकोर,city,,,25658.0,Asia/Kolkata,Q1192377
131809,Damnagar,4030,GJ,Gujarat,101,IN,India,21.69232,71.51747,दमनगर,city,,,17766.0,Asia/Kolkata,Q1189805
147590,Dandi,4030,GJ,Gujarat,101,IN,India,21.32988,72.62484,दांडी,city,,,0.0,Asia/Kolkata,Q1026197
147591,Danta,4030,GJ,Gujarat,101,IN,India,24.18861111,72.76583333,दंता,city,,,0.0,Asia/Kolkata,Q3015704
131673,Dayapar,4030,GJ,Gujarat,101,IN,India,23.63371,68.90192,दयापार,city,,,12000.0,Asia/Kolkata,Q15242758
131680,Delvada,4030,GJ,Gujarat,101,IN,India,20.77544,71.04646,डेल्वाडा,city,,,11912.0,Asia/Kolkata,Q1353
142128,Delwada,4030,GJ,Gujarat,101,IN,India,20.7833,71.05,देलवाड़ा,city,,,11912.0,Asia/Kolkata,Q16999192
147592,Detroj,4030,GJ,Gujarat,101,IN,India,23.33333333,72.18333333,डेट्रोज,city,,,0.0,Asia/Kolkata,Q2761011
131704,Devbhumi Dwarka,4030,GJ,Gujarat,101,IN,India,22.20253,69.65498,देवभूमि द्वारका,city,,,752484.0,Asia/Kolkata,Q2087756
131705,Devgadh Bariya,4030,GJ,Gujarat,101,IN,India,22.70517,73.90882,देवगढ़ बरिया,city,,,21030.0,Asia/Kolkata,Q1263667
131716,Dhandhuka,4030,GJ,Gujarat,101,IN,India,22.38185,71.98664,धंधुका,city,,,32475.0,Asia/Kolkata,Q1259584
131717,Dhanera,4030,GJ,Gujarat,101,IN,India,24.50967,72.02343,धनेरा,city,,,29578.0,Asia/Kolkata,Q1266017
147593,Dhansura,4030,GJ,Gujarat,101,IN,India,23.35,73.2,धनसुरा,city,,,0.0,Asia/Kolkata,Q5269024
131719,Dharampur,4030,GJ,Gujarat,101,IN,India,20.53693,73.17368,धरमपुर,city,,,24178.0,Asia/Kolkata,Q2465676
147594,Dharasana,4030,GJ,Gujarat,101,IN,India,20.68333333,72.91666667,धरासन,city,,,0.0,Asia/Kolkata,Q15213874
131755,Dhari,4030,GJ,Gujarat,101,IN,India,21.32855,71.02645,धरी,city,,,29346.0,Asia/Kolkata,Q2761749
147595,Dhasa,4030,GJ,Gujarat,101,IN,India,21.8,71.51666667,धसा,city,,,14448.0,Asia/Kolkata,Q5269418
131738,Dhola,4030,GJ,Gujarat,101,IN,India,21.88129,71.77269,ढोला,city,,,8206.0,Asia/Kolkata,Q2355879
147596,Dholera,4030,GJ,Gujarat,101,IN,India,22.248,72.195,धोलेरा,city,,,0.0,Asia/Kolkata,Q2761956
131739,Dholka,4030,GJ,Gujarat,101,IN,India,22.72732,72.44128,ढोलका,city,,,80945.0,Asia/Kolkata,Q1263568
131741,Dhoraji,4030,GJ,Gujarat,101,IN,India,21.73359,70.45004,धोराजी,city,,,84545.0,Asia/Kolkata,Q1259573
131743,Dhrangadhra,4030,GJ,Gujarat,101,IN,India,22.99167,71.46793,ध्रांगधरा,city,,,75578.0,Asia/Kolkata,Q1265559
131742,Dhrol,4030,GJ,Gujarat,101,IN,India,22.567,70.41769,ध्रोल,city,,,26496.0,Asia/Kolkata,Q927778
131747,Dhuwaran,4030,GJ,Gujarat,101,IN,India,22.23779,72.7591,धुवारन,city,,,11473.0,Asia/Kolkata,Q2761882
131817,Disa,4030,GJ,Gujarat,101,IN,India,24.25612,72.17928,दिसा,adm3,,,111160.0,Asia/Kolkata,Q31856848
131782,Dohad,4030,GJ,Gujarat,101,IN,India,22.9,74.0,दाहोद,city,,,,Asia/Kolkata,Q186518
147597,Dumkhal,4030,GJ,Gujarat,101,IN,India,21.7396,73.8449,दुमखल,city,,,0.0,Asia/Kolkata,Q2759470
131800,Dungarpur,4030,GJ,Gujarat,101,IN,India,21.28777,71.7556,डूंगरपुर,city,,,6105.0,Asia/Kolkata,Q1524667
131803,Dwarka,4030,GJ,Gujarat,101,IN,India,22.23944,68.96778,द्वारका,city,,,38873.0,Asia/Kolkata,Q817247
131888,Gadhada,4030,GJ,Gujarat,101,IN,India,21.96957,71.57828,गधाडा,city,,,29872.0,Asia/Kolkata,Q1525333
131899,Gandevi,4030,GJ,Gujarat,101,IN,India,20.81214,72.99811,गांडीवी,city,,,16827.0,Asia/Kolkata,Q721365
132046,Gandhidham,4030,GJ,Gujarat,101,IN,India,23.08333,70.13333,गांधीधाम,city,,,247992.0,Asia/Kolkata,Q41543
131900,Gandhinagar,4030,GJ,Gujarat,101,IN,India,23.21667,72.68333,गांधीनगर,adm1,,,292797.0,Asia/Kolkata,Q11910
131925,Gariadhar,4030,GJ,Gujarat,101,IN,India,21.53889,71.57737,गरियाधर,city,,,35692.0,Asia/Kolkata,Q536870
147598,Ghodasar,4030,GJ,Gujarat,101,IN,India,24.45,71.85,घोड़ासर,city,,,0.0,Asia/Kolkata,Q5556817
131944,Ghogha,4030,GJ,Gujarat,101,IN,India,21.68813,72.2763,घोघा,city,,,12208.0,Asia/Kolkata,Q1707463
131958,Gir Somnath,4030,GJ,Gujarat,101,IN,India,20.91287,70.3671,गिर सोमनाथ,city,,,1217477.0,Asia/Kolkata,Q1524976
131964,Godhra,4030,GJ,Gujarat,101,IN,India,22.77547,73.61488,गोधरा,city,,,161925.0,Asia/Kolkata,Q1708114
131982,Gondal,4030,GJ,Gujarat,101,IN,India,21.96074,70.80255,गोंडल,city,,,112197.0,Asia/Kolkata,Q1536978
147599,Gorwa,4030,GJ,Gujarat,101,IN,India,22.3301,73.1611,गोरवा,city,,,0.0,Asia/Kolkata,Q5586976
147600,Halenda,4030,GJ,Gujarat,101,IN,India,22.088185,71.05171,हालेंडा,city,,,0.0,Asia/Kolkata,Q647446
132139,Halol,4030,GJ,Gujarat,101,IN,India,22.50321,73.47242,हलोल,city,,,64265.0,Asia/Kolkata,Q1707605
132060,Halvad,4030,GJ,Gujarat,101,IN,India,23.01516,71.18029,हल्वाद,city,,,32024.0,Asia/Kolkata,Q1707007
132065,Hansot,4030,GJ,Gujarat,101,IN,India,21.58496,72.80764,हंसोट,city,,,12525.0,Asia/Kolkata,Q2777153
132143,Harij,4030,GJ,Gujarat,101,IN,India,23.69356,71.907,हरिज,city,,,20253.0,Asia/Kolkata,Q1708423
147601,Harsol,4030,GJ,Gujarat,101,IN,India,23.36,73.02,हरसोल,city,,,0.0,Asia/Kolkata,Q2776931
147602,Hathuran,4030,GJ,Gujarat,101,IN,India,21.5,72.97,हथुरान,city,,,0.0,Asia/Kolkata,Q5681558
132096,Himatnagar,4030,GJ,Gujarat,101,IN,India,23.59893,72.96602,हिम्मतनगर,adm2,,,81137.0,Asia/Kolkata,Q1708155
147603,Idar,4030,GJ,Gujarat,101,IN,India,23.83,73.0,इदर,city,,,42306.0,Asia/Kolkata,Q1755548
147604,Jakhau,4030,GJ,Gujarat,101,IN,India,23.21861111,68.71694444,जखाऊ,city,,,0.0,Asia/Kolkata,Q6125153
142129,Jalalpore,4030,GJ,Gujarat,101,IN,India,20.9491,72.9136,जलालपुर,city,,,81245.0,Asia/Kolkata,Q2013180
132219,Jalalpur,4030,GJ,Gujarat,101,IN,India,20.94896,72.89829,जलालपुर,city,,,17325.0,Asia/Kolkata,Q2013180
147605,Jalia,4030,GJ,Gujarat,101,IN,India,21.8,70.25,जालिया,city,,,19458.0,Asia/Kolkata,Q2758137
147606,Jambuda,4030,GJ,Gujarat,101,IN,India,22.51666667,70.21666667,जम्बुदा,city,,,0.0,Asia/Kolkata,Q2757726
132226,Jambusar,4030,GJ,Gujarat,101,IN,India,22.05236,72.80074,जंबूसर,city,,,43344.0,Asia/Kolkata,Q2013301
132230,Jamnagar,4030,GJ,Gujarat,101,IN,India,22.47292,70.06673,जामनगर,city,,,600943.0,Asia/Kolkata,Q1154
147607,Jarod,4030,GJ,Gujarat,101,IN,India,22.433,73.333,जारोड,city,,,7200.0,Asia/Kolkata,Q2757535
132243,Jasdan,4030,GJ,Gujarat,101,IN,India,22.03709,71.20794,जसदान,city,,,48483.0,Asia/Kolkata,Q1714838
147608,Jetalpur,4030,GJ,Gujarat,101,IN,India,22.88333333,72.6,जेतलपुर,city,,,0.0,Asia/Kolkata,Q15229532
132261,Jetalsar,4030,GJ,Gujarat,101,IN,India,21.70891,70.57695,जेताल्सर,city,,,14771.0,Asia/Kolkata,Q26788212
132262,Jetpur,4030,GJ,Gujarat,101,IN,India,21.7543725,70.6189391,जेतपुर,city,,,118302.0,Asia/Kolkata,Q968713
147610,Jhalod,4030,GJ,Gujarat,101,IN,India,23.10027778,74.15611111,झालोद,city,,,28720.0,Asia/Kolkata,Q3808247
132272,Jhulasan,4030,GJ,Gujarat,101,IN,India,23.3286,72.47314,झुलासन,city,,,8000.0,Asia/Kolkata,Q2758980
132285,Jodhpur,4030,GJ,Gujarat,101,IN,India,21.90174,70.0327,जोधपुर,city,,,47329.0,Asia/Kolkata,Q1609645
147611,Jodhpur (Ahmedabad),4030,GJ,Gujarat,101,IN,India,21.88,70.03,जोधपुर (अहमदाबाद),city,,,47329.0,Asia/Kolkata,Q1609645
132317,Junagadh,4030,GJ,Gujarat,101,IN,India,21.25,70.33333,जूनागढ़,city,,,320250.0,Asia/Kolkata,Q11864
132321,Kachchh,4030,GJ,Gujarat,101,IN,India,23.58333,70.0,कच्छ,city,,,,Asia/Kolkata,Q1063417
147612,Kachholi,4030,GJ,Gujarat,101,IN,India,20.83333333,72.96666667,कछौली,city,,,0.0,Asia/Kolkata,Q2726489
132327,Kadi,4030,GJ,Gujarat,101,IN,India,23.29908,72.33362,कादी,city,,,81404.0,Asia/Kolkata,Q2726621
132329,Kadod,4030,GJ,Gujarat,101,IN,India,21.21717,73.21972,कडोद,city,,,16747.0,Asia/Kolkata,Q2726639
132689,Kalavad,4030,GJ,Gujarat,101,IN,India,22.20789,70.38343,कलावड,city,,,28314.0,Asia/Kolkata,Q2251785
132682,Kalol,4030,GJ,Gujarat,101,IN,India,22.60777,73.46272,कलोल,city,,,25929.0,Asia/Kolkata,Q2724740
132698,Kandla,4030,GJ,Gujarat,101,IN,India,23.03333,70.21667,कांडला,city,,,25845.0,Asia/Kolkata,Q581480
147613,Kandla port,4030,GJ,Gujarat,101,IN,India,23.03,70.22,कांडला बंदरगाह,city,,,25845.0,Asia/Kolkata,Q581480
132708,Kanodar,4030,GJ,Gujarat,101,IN,India,24.08932,72.39354,कनोदर,city,,,12389.0,Asia/Kolkata,Q2564896
132390,Kapadvanj,4030,GJ,Gujarat,101,IN,India,23.02302,73.07113,कपडवंज,city,,,49308.0,Asia/Kolkata,Q2341421
132394,Karamsad,4030,GJ,Gujarat,101,IN,India,22.54243,72.90392,करमसद,city,,,35285.0,Asia/Kolkata,Q2349890
147614,Kariana,4030,GJ,Gujarat,101,IN,India,21.88333333,71.35,करियाना,city,,,0.0,Asia/Kolkata,Q2727236
147615,Karjan,4030,GJ,Gujarat,101,IN,India,22.05304167,73.12351389,कर्जन,city,,,30405.0,Asia/Kolkata,Q2295886
132723,Kathor,4030,GJ,Gujarat,101,IN,India,21.28854,72.9407,कथोर,city,,,15311.0,Asia/Kolkata,Q2726550
132425,Katpur,4030,GJ,Gujarat,101,IN,India,21.05869,71.79457,कटपुर,city,,,8677.0,Asia/Kolkata,Q746441
132434,Kawant,4030,GJ,Gujarat,101,IN,India,22.09282,74.05078,कावंत,city,,,9553.0,Asia/Kolkata,Q1929610
147616,Kayavarohan,4030,GJ,Gujarat,101,IN,India,22.067,73.25,कायावरोहन,city,,,0.0,Asia/Kolkata,Q2723783
147617,Kerwada,4030,GJ,Gujarat,101,IN,India,21.9,72.85,केरवाड़ा,city,,,0.0,Asia/Kolkata,Q2728727
132446,Keshod,4030,GJ,Gujarat,101,IN,India,21.30328,70.24861,केशोद,city,,,76193.0,Asia/Kolkata,Q599414
142132,Khambhalia,4030,GJ,Gujarat,101,IN,India,22.2,69.65,खंभालिया,adm2,,,41734.0,Asia/Kolkata,Q2120093
132462,Khambhat,4030,GJ,Gujarat,101,IN,India,22.31744,72.61916,खंभात,city,,,98700.0,Asia/Kolkata,Q1740527
147618,Khavda,4030,GJ,Gujarat,101,IN,India,23.85,69.72,खावडा,city,,,0.0,Asia/Kolkata,Q6401016
132488,Kheda,4030,GJ,Gujarat,101,IN,India,22.75,72.83333,खेड़ा,city,,,25575.0,Asia/Kolkata,Q775759
132489,Khedbrahma,4030,GJ,Gujarat,101,IN,India,24.0299,73.04632,खेदब्रह्मा,city,,,25001.0,Asia/Kolkata,Q9461
147619,Khedoi,4030,GJ,Gujarat,101,IN,India,23.05927778,69.91895556,खेदोई,city,,,0.0,Asia/Kolkata,Q6401200
147620,Kherali,4030,GJ,Gujarat,101,IN,India,22.68333333,71.6,खेराली,city,,,0.0,Asia/Kolkata,Q2730823
132494,Kheralu,4030,GJ,Gujarat,101,IN,India,23.88534,72.61869,खेरालु,city,,,21843.0,Asia/Kolkata,Q2236264
132547,Kodinar,4030,GJ,Gujarat,101,IN,India,20.79393,70.70216,कोडिनार,city,,,41492.0,Asia/Kolkata,Q2239007
132588,Kosamba,4030,GJ,Gujarat,101,IN,India,21.46202,72.95842,कोसम्बा,city,,,33221.0,Asia/Kolkata,Q431049
147621,Kothara,4030,GJ,Gujarat,101,IN,India,23.133,68.932,कोठारा,city,,,0.0,Asia/Kolkata,Q6434019
147622,Kotharia,4030,GJ,Gujarat,101,IN,India,22.23,70.81,कोठारिया,city,,,53794.0,Asia/Kolkata,Q2729203
147623,Kukarmunda,4030,GJ,Gujarat,101,IN,India,21.51666667,74.13333333,कुकरमुंडा,city,,,0.0,Asia/Kolkata,Q2728479
147624,Kukma,4030,GJ,Gujarat,101,IN,India,23.217822,69.777922,कुक्मा,city,,,0.0,Asia/Kolkata,Q6442533
132647,Kundla,4030,GJ,Gujarat,101,IN,India,21.34222,71.30633,कुंडला,city,,,76809.0,Asia/Kolkata,Q2734216
142133,Kutch,4030,GJ,Gujarat,101,IN,India,23.915,70.367,कच्छ जिला,district,,,2092371.0,Asia/Kolkata,Q1063417
132670,Kutiyana,4030,GJ,Gujarat,101,IN,India,21.6241,69.98494,कुटियाना,city,,,16877.0,Asia/Kolkata,Q2238993
147628,Ladol,4030,GJ,Gujarat,101,IN,India,23.61666667,72.73333333,लाडोल,city,,,0.0,Asia/Kolkata,Q6711592
147625,Lakhpat,4030,GJ,Gujarat,101,IN,India,23.82611111,68.77694444,लखपत,city,,,0.0,Asia/Kolkata,Q2771159
132747,Lakhtar,4030,GJ,Gujarat,101,IN,India,22.85683,71.78844,लखतर,city,,,14534.0,Asia/Kolkata,Q2234278
132797,Lalpur,4030,GJ,Gujarat,101,IN,India,22.19073,69.96351,लालपुर,city,,,15076.0,Asia/Kolkata,Q2771361
147626,Langhnaj,4030,GJ,Gujarat,101,IN,India,23.45,72.48333333,लंघनाज,city,,,0.0,Asia/Kolkata,Q6486089
132802,Lathi,4030,GJ,Gujarat,101,IN,India,21.7231,71.38843,लाठी,city,,,22745.0,Asia/Kolkata,Q3827464
132764,Limbdi,4030,GJ,Gujarat,101,IN,India,22.56507,71.81076,लिम्बडी,city,,,42769.0,Asia/Kolkata,Q715228
147627,Limkheda,4030,GJ,Gujarat,101,IN,India,22.81666667,73.98333333,लिमखेड़ा,city,,,3924.0,Asia/Kolkata,Q2771499
132804,Lunavada,4030,GJ,Gujarat,101,IN,India,23.12841,73.61043,लुनावाड़ा,adm2,,,36954.0,Asia/Kolkata,Q2240915
147629,Madhavpur Ghed,4030,GJ,Gujarat,101,IN,India,21.29929167,70.02513889,माधवपुर घेड,city,,,0.0,Asia/Kolkata,Q2723937
147630,Madhi,4030,GJ,Gujarat,101,IN,India,22.1,69.1,मधि,city,,,0.0,Asia/Kolkata,Q19810113
132831,Mahemdavad,4030,GJ,Gujarat,101,IN,India,22.82359,72.75551,महेमदावाद,city,,,35368.0,Asia/Kolkata,Q2233469
132834,Mahesana,4030,GJ,Gujarat,101,IN,India,23.66667,72.5,महेसाणा,city,,,,Asia/Kolkata,Q2019694
147631,Mahisa,4030,GJ,Gujarat,101,IN,India,22.85,73.05,महिसा,city,,,0.0,Asia/Kolkata,Q2768107
132841,Mahudha,4030,GJ,Gujarat,101,IN,India,22.82082,72.94032,महुधा,city,,,17722.0,Asia/Kolkata,Q2606805
147632,Mahuva,4030,GJ,Gujarat,101,IN,India,21.0833,71.8,महुवा,city,,,98519.0,Asia/Kolkata,Q1924998
147633,Mahuva (Surat),4030,GJ,Gujarat,101,IN,India,21.02,73.15,महुवा (सूरत),city,,,,Asia/Kolkata,Q2768146
133068,Malpur,4030,GJ,Gujarat,101,IN,India,23.36035,73.46595,मालपुर,city,,,6971.0,Asia/Kolkata,Q2234238
133085,Manavadar,4030,GJ,Gujarat,101,IN,India,21.49813,70.13775,मानवदार,city,,,30850.0,Asia/Kolkata,Q1330938
133073,Mandal,4030,GJ,Gujarat,101,IN,India,23.28865,71.91854,मंडल,city,,,13345.0,Asia/Kolkata,Q26783813
133076,Mandvi,4030,GJ,Gujarat,101,IN,India,22.83282,69.35237,मांडवी,city,,,51376.0,Asia/Kolkata,Q2570689
142134,Mandvi (Surat),4030,GJ,Gujarat,101,IN,India,21.25526,73.30412,मांडवी (सूरत),city,,,,Asia/Kolkata,Q2768275
133077,Mangrol,4030,GJ,Gujarat,101,IN,India,21.12268,70.11484,मंगरोल,city,,,69779.0,Asia/Kolkata,Q2577440
147634,Mangrol (Junagadh),4030,GJ,Gujarat,101,IN,India,21.12,70.12,मंगरोल (जूनागढ़),city,,,,Asia/Kolkata,Q2577440
133081,Mansa,4030,GJ,Gujarat,101,IN,India,23.42564,72.65739,मानसा,city,,,30347.0,Asia/Kolkata,Q720211
132960,Meghraj,4030,GJ,Gujarat,101,IN,India,23.49805,73.51352,मेघराज,city,,,11363.0,Asia/Kolkata,Q2673443
142135,Mehsana,4030,GJ,Gujarat,101,IN,India,23.6,72.4,मेहसाणा,city,,,184991.0,Asia/Kolkata,Q1922283
132966,Mendarda,4030,GJ,Gujarat,101,IN,India,21.32112,70.44078,मेंदार्दा,city,,,17166.0,Asia/Kolkata,Q2768932
147635,Mithapur,4030,GJ,Gujarat,101,IN,India,22.41,69.0,मीठापुर,city,,,0.0,Asia/Kolkata,Q2738453
132978,Modasa,4030,GJ,Gujarat,101,IN,India,23.46253,73.29857,मोडासा,adm2,,,67648.0,Asia/Kolkata,Q2320097
132993,Morbi,4030,GJ,Gujarat,101,IN,India,22.81731,70.8377,मोरबी,adm2,,,210451.0,Asia/Kolkata,Q2087713
142136,Morva (Hadaf),4030,GJ,Gujarat,101,IN,India,22.9474014,73.834839,मोरवा (हदफ़),city,,,20168.0,Asia/Kolkata,Q2769626
133000,Morwa,4030,GJ,Gujarat,101,IN,India,22.9184516,73.8426033,मोरवा,city,,,20168.0,Asia/Kolkata,Q1814480
133029,Mundra,4030,GJ,Gujarat,101,IN,India,22.83918,69.7219,मुंद्रा,city,,,20338.0,Asia/Kolkata,Q2234250
133106,Nadiad,4030,GJ,Gujarat,101,IN,India,22.69385,72.86157,नाडियाड,city,,,225132.0,Asia/Kolkata,Q219039
147637,Nagwa,4030,GJ,Gujarat,101,IN,India,25.69621,84.2359,नाग्वा,city,,,0.0,Asia/Kolkata,Q15260788
147638,Naldhara,4030,GJ,Gujarat,101,IN,India,20.96666667,73.16666667,नालधारा,city,,,0.0,Asia/Kolkata,Q6960849
133133,Naliya,4030,GJ,Gujarat,101,IN,India,23.26058,68.82655,नालिया,city,,,11415.0,Asia/Kolkata,Q6960925
147639,Nargol,4030,GJ,Gujarat,101,IN,India,20.233,72.75,नारगोल,city,,,27859.0,Asia/Kolkata,Q2763089
133169,Narmada,4030,GJ,Gujarat,101,IN,India,21.87377,73.49527,नर्मदा,city,,,590297.0,Asia/Kolkata,Q15261015
133170,Naroda,4030,GJ,Gujarat,101,IN,India,23.07041,72.65702,नरोडा,city,,,5366.0,Asia/Kolkata,Q6966092
133187,Navsari,4030,GJ,Gujarat,101,IN,India,20.95,72.92,नवसारी,adm2,,,1329672.0,Asia/Kolkata,Q1922248
147640,Nikora,4030,GJ,Gujarat,101,IN,India,21.78586,73.13968,निकोरा,city,,,0.0,Asia/Kolkata,Q15262336
147641,Nizar,4030,GJ,Gujarat,101,IN,India,21.47727,74.19595,निज़ार,city,,,0.0,Asia/Kolkata,Q26928895
147642,Odadar,4030,GJ,Gujarat,101,IN,India,21.56666667,69.66666667,ओडादार,city,,,0.0,Asia/Kolkata,Q2726106
133297,Okha,4030,GJ,Gujarat,101,IN,India,22.46756,69.07002,ओखा,city,,,62052.0,Asia/Kolkata,Q2726034
133298,Olpad,4030,GJ,Gujarat,101,IN,India,21.33649,72.75161,ओलपाड,city,,,14091.0,Asia/Kolkata,Q2726258
133313,Paddhari,4030,GJ,Gujarat,101,IN,India,22.43654,70.60162,पडधारी,city,,,10547.0,Asia/Kolkata,Q2575916
133315,Padra,4030,GJ,Gujarat,101,IN,India,22.2398,73.08451,पादरा,city,,,46660.0,Asia/Kolkata,Q2247454
133526,Palanpur,4030,GJ,Gujarat,101,IN,India,24.17128,72.43827,पालनपुर,city,,,141592.0,Asia/Kolkata,Q949907
147643,Palanswa,4030,GJ,Gujarat,101,IN,India,23.46666667,70.93333333,पलान्स्वा,city,,,0.0,Asia/Kolkata,Q7126721
133532,Palitana,4030,GJ,Gujarat,101,IN,India,21.52519,71.82309,पालिताना,city,,,64497.0,Asia/Kolkata,Q3786790
133533,Paliyad,4030,GJ,Gujarat,101,IN,India,22.25757,71.56024,पलियाद,city,,,10862.0,Asia/Kolkata,Q3786790
147645,Palsana,4030,GJ,Gujarat,101,IN,India,21.08,72.98,पलसाना,city,,,0.0,Asia/Kolkata,Q2763782
133536,Panch Mahals,4030,GJ,Gujarat,101,IN,India,23.0,74.0,पंच महल,city,,,,Asia/Kolkata,Q1781463
142137,Panchmahal,4030,GJ,Gujarat,101,IN,India,22.6978098,73.5980682,पंचमहल जिला,district,,,2390776.0,Asia/Kolkata,Q1781463
133548,Pardi,4030,GJ,Gujarat,101,IN,India,20.5087,72.94569,पारदी,city,,,28495.0,Asia/Kolkata,Q1925363
133362,Parnera,4030,GJ,Gujarat,101,IN,India,20.56101,72.94846,परनेरा,city,,,12296.0,Asia/Kolkata,Q2735009
133376,Patan,4030,GJ,Gujarat,101,IN,India,23.7,71.8,पाटन,city,,,13779.0,Asia/Kolkata,Q579702
142138,Pavi Jetpur,4030,GJ,Gujarat,101,IN,India,22.34472,73.84093,पावी जेतपुर,city,,,8446.0,Asia/Kolkata,Q26788214
133429,Petlad,4030,GJ,Gujarat,101,IN,India,22.47681,72.79995,पेटलाड,city,,,55330.0,Asia/Kolkata,Q2734226
147646,Pipavav,4030,GJ,Gujarat,101,IN,India,20.96666667,71.56666667,पिपावाव,city,,,0.0,Asia/Kolkata,Q1343195
147647,Piplod,4030,GJ,Gujarat,101,IN,India,22.81666667,73.9,पिपलोद,city,,,0.0,Asia/Kolkata,Q7197451
133480,Porbandar,4030,GJ,Gujarat,101,IN,India,21.64219,69.60929,पोरबंदर,city,,,152760.0,Asia/Kolkata,Q33473477
147648,Prabhas Patan,4030,GJ,Gujarat,101,IN,India,20.88808,70.40129,प्रभास पाटन,city,,,0.0,Asia/Kolkata,Q7237228
147649,Prantij,4030,GJ,Gujarat,101,IN,India,23.43841944,72.85718056,प्रांतिज,city,,,23596.0,Asia/Kolkata,Q2724388
133657,Radhanpur,4030,GJ,Gujarat,101,IN,India,23.83238,71.6047,राधनपुर,city,,,39558.0,Asia/Kolkata,Q2068178
133679,Rajkot,4030,GJ,Gujarat,101,IN,India,22.33333,70.83333,राजकोट,city,,,2043000.0,Asia/Kolkata,Q11854
133682,Rajpipla,4030,GJ,Gujarat,101,IN,India,21.86667,73.5,राजपिपला,city,,,35392.0,Asia/Kolkata,Q1816866
133684,Rajula,4030,GJ,Gujarat,101,IN,India,21.03854,71.44345,राजुला,city,,,38489.0,Asia/Kolkata,Q2734999
133718,Ranavav,4030,GJ,Gujarat,101,IN,India,21.68734,69.74485,रानावाव,city,,,46018.0,Asia/Kolkata,Q2570700
147650,Ranpur,4030,GJ,Gujarat,101,IN,India,22.3667,71.75,रानपुर,city,,,16944.0,Asia/Kolkata,Q2770373
133722,Rapar,4030,GJ,Gujarat,101,IN,India,23.57267,70.64718,रपार,city,,,28407.0,Asia/Kolkata,Q2724400
147651,Reha,4030,GJ,Gujarat,101,IN,India,23.151725,69.750086,रेहा,city,,,0.0,Asia/Kolkata,Q7309730
133643,Roha,4030,GJ,Gujarat,101,IN,India,23.19646,69.27076,रोहा,city,,,8664.0,Asia/Kolkata,Q2557879
133739,Sabar Kantha,4030,GJ,Gujarat,101,IN,India,23.62974,73.00197,साबर कंथा,city,,,,Asia/Kolkata,Q2548310
133742,Sachin,4030,GJ,Gujarat,101,IN,India,21.08718,72.88153,सचिन,city,,,28102.0,Asia/Kolkata,Q2774361
133766,Salaya,4030,GJ,Gujarat,101,IN,India,22.31038,69.60376,सलाया,city,,,33246.0,Asia/Kolkata,Q2734222
147652,Samakhiali,4030,GJ,Gujarat,101,IN,India,23.3034,70.50688,समखियाली,city,,,0.0,Asia/Kolkata,Q7408505
134069,Sanand,4030,GJ,Gujarat,101,IN,India,22.99227,72.38177,साणंद,city,,,95890.0,Asia/Kolkata,Q2228906
133790,Sankheda,4030,GJ,Gujarat,101,IN,India,22.17021,73.5782,संखेड़ा,city,,,12077.0,Asia/Kolkata,Q2774237
147653,Sarbhon,4030,GJ,Gujarat,101,IN,India,21.05,73.0833,सरभोन,city,,,0.0,Asia/Kolkata,Q7423512
147654,Sardoi,4030,GJ,Gujarat,101,IN,India,23.5667,73.2667,सरदोई,adm2,,,0.0,Asia/Kolkata,Q2774649
133808,Sarkhej,4030,GJ,Gujarat,101,IN,India,22.98297,72.50196,सरखेज,city,,,30341.0,Asia/Kolkata,Q3107283
147655,Sathamba,4030,GJ,Gujarat,101,IN,India,23.169125,73.32661667,सथम्बा,city,,,7213.0,Asia/Kolkata,Q7426123
133831,Savarkundla,4030,GJ,Gujarat,101,IN,India,21.33726,71.3035,सावरकुंडला,city,,,73695.0,Asia/Kolkata,Q2734216
147656,Savli,4030,GJ,Gujarat,101,IN,India,22.56666667,73.21666667,सावली,city,,,18467.0,Asia/Kolkata,Q7428379
134085,Sayla,4030,GJ,Gujarat,101,IN,India,22.54925,71.48324,सायला,city,,,15376.0,Asia/Kolkata,Q2775259
133900,Shahpur,4030,GJ,Gujarat,101,IN,India,22.15611,70.77068,शाहपुर,city,,,12867.0,Asia/Kolkata,Q3959001
133882,Shivrajpur,4030,GJ,Gujarat,101,IN,India,22.42319,73.60865,शिवराजपुर,city,,,6705.0,Asia/Kolkata,Q2299042
142139,Siddhpur,4030,GJ,Gujarat,101,IN,India,23.9167,72.3833,सिद्धपुर,city,,,61867.0,Asia/Kolkata,Q2572203
133925,Sihor,4030,GJ,Gujarat,101,IN,India,21.71134,71.96179,सीहोर,city,,,52603.0,Asia/Kolkata,Q2572958
133932,Sikka,4030,GJ,Gujarat,101,IN,India,22.43218,69.84158,सिक्का,city,,,28814.0,Asia/Kolkata,Q1617473
133954,Sinor,4030,GJ,Gujarat,101,IN,India,21.91117,73.33974,सिनोर,city,,,11267.0,Asia/Kolkata,Q2773921
133984,Sojitra,4030,GJ,Gujarat,101,IN,India,22.53884,72.71984,सोजित्रा,city,,,19403.0,Asia/Kolkata,Q7555023
133995,Songadh,4030,GJ,Gujarat,101,IN,India,21.16966,73.56357,सोनगढ़,city,,,26515.0,Asia/Kolkata,Q2734240
147657,Supedi,4030,GJ,Gujarat,101,IN,India,21.762,70.378,सुपेदी,city,,,0.0,Asia/Kolkata,Q2775816
134096,Surat,4030,GJ,Gujarat,101,IN,India,21.17801,72.81189,सूरत,city,,,5935000.0,Asia/Kolkata,Q4629
134050,Surendranagar,4030,GJ,Gujarat,101,IN,India,22.72706,71.64856,सुरेंद्रनगर,city,,,179628.0,Asia/Kolkata,Q1023682
147658,Sutrapada,4030,GJ,Gujarat,101,IN,India,20.8928,70.465,सूत्रपद,city,,,26132.0,Asia/Kolkata,Q2775790
134107,Talaja,4030,GJ,Gujarat,101,IN,India,21.3527,72.03524,तलजा,city,,,29948.0,Asia/Kolkata,Q766933
134112,Tankara,4030,GJ,Gujarat,101,IN,India,22.65622,70.74945,टंकारा,city,,,10175.0,Asia/Kolkata,Q7683522
134114,Tapi,4030,GJ,Gujarat,101,IN,India,21.12,73.4,तापी,city,,,807022.0,Asia/Kolkata,Q670165
134164,Than,4030,GJ,Gujarat,101,IN,India,22.57422,71.19942,बजाय,city,,,42508.0,Asia/Kolkata,Q2231030
142140,Thangadh,4030,GJ,Gujarat,101,IN,India,22.56666667,71.18333333,थानगढ़,city,,,42508.0,Asia/Kolkata,Q2231030
134144,Tharad,4030,GJ,Gujarat,101,IN,India,24.39597,71.62577,थाराड,city,,,27954.0,Asia/Kolkata,Q2557742
134168,Thasra,4030,GJ,Gujarat,101,IN,India,22.79831,73.21174,थसरा,city,,,18337.0,Asia/Kolkata,Q2759268
134145,The Dangs,4030,GJ,Gujarat,101,IN,India,20.75,73.75,द डांग्स,city,,,,Asia/Kolkata,Q2557742
147659,Umarpada,4030,GJ,Gujarat,101,IN,India,21.45,73.5,उमरपाड़ा,city,,,0.0,Asia/Kolkata,Q2725556
134277,Umrala,4030,GJ,Gujarat,101,IN,India,21.84353,71.80305,उम्राला,city,,,11874.0,Asia/Kolkata,Q2725836
134275,Umreth,4030,GJ,Gujarat,101,IN,India,22.69881,73.11561,उमरेठ,city,,,33762.0,Asia/Kolkata,Q2724380
134278,Un,4030,GJ,Gujarat,101,IN,India,23.88745,71.76975,संयुक्त राष्ट्र,city,,,30671.0,Asia/Kolkata,Q2725833
134280,Una,4030,GJ,Gujarat,101,IN,India,20.82318,71.03795,ऊना,city,,,58528.0,Asia/Kolkata,Q1622928
134284,Unjha,4030,GJ,Gujarat,101,IN,India,23.80366,72.39101,उंझा,city,,,57108.0,Asia/Kolkata,Q767916
134286,Upleta,4030,GJ,Gujarat,101,IN,India,21.74015,70.28256,उपलेटा,city,,,58775.0,Asia/Kolkata,Q2734950
134297,Utran,4030,GJ,Gujarat,101,IN,India,21.23333,72.86667,उतरन,city,,,14855.0,Asia/Kolkata,Q2231121
147660,Vadgam,4030,GJ,Gujarat,101,IN,India,24.08333333,72.48333333,वडगाम,city,,,0.0,Asia/Kolkata,Q2771862
134309,Vadnagar,4030,GJ,Gujarat,101,IN,India,23.78593,72.63893,वडनगर,city,,,27790.0,Asia/Kolkata,Q2570726
134310,Vadodara,4030,GJ,Gujarat,101,IN,India,22.29941,73.20812,वडोदरा,city,,,2065771.0,Asia/Kolkata,Q11909
134381,Vaghodia,4030,GJ,Gujarat,101,IN,India,22.30505,73.40016,वाघोडिया,city,,,16604.0,Asia/Kolkata,Q1935461
147661,Vaghodia INA,4030,GJ,Gujarat,101,IN,India,22.3,73.3833,वाघोडिया आईएनए,city,,,16604.0,Asia/Kolkata,Q1935461
134318,Vallabh Vidyanagar,4030,GJ,Gujarat,101,IN,India,22.53333,72.9,वल्लभ विद्यानगर,city,,,32581.0,Asia/Kolkata,Q2234110
142141,Vallabhipur,4030,GJ,Gujarat,101,IN,India,21.8878,71.8795,वल्लभीपुर,city,,,18663.0,Asia/Kolkata,Q1534153
134322,Valsad,4030,GJ,Gujarat,101,IN,India,20.5,73.08333,वलसाड,city,,,139764.0,Asia/Kolkata,Q302654
147662,Vanala,4030,GJ,Gujarat,101,IN,India,22.45,71.98333333,वनाला,city,,,32475.0,Asia/Kolkata,Q7913948
142142,Vansda,4030,GJ,Gujarat,101,IN,India,20.45,73.22,वांसदा,city,,,14072.0,Asia/Kolkata,Q2724780
147663,Vanthli,4030,GJ,Gujarat,101,IN,India,21.4833,70.3333,वंथली,city,,,14554.0,Asia/Kolkata,Q16902519
134326,Vapi,4030,GJ,Gujarat,101,IN,India,20.37175,72.90493,वापी,city,,,163630.0,Asia/Kolkata,Q2087696
134331,Vartej,4030,GJ,Gujarat,101,IN,India,21.73947,72.06553,वर्तेज,city,,,11354.0,Asia/Kolkata,Q2738371
134332,Vasa,4030,GJ,Gujarat,101,IN,India,23.8398349,71.9301999,वासा,city,,,,Asia/Kolkata,Q2738371
147664,Vasavad,4030,GJ,Gujarat,101,IN,India,21.82657,71.02436,वासवद,city,,,0.0,Asia/Kolkata,Q2773098
142143,Vaso,4030,GJ,Gujarat,101,IN,India,22.6609576,72.7553379,वासो,city,,,15934.0,Asia/Kolkata,Q2772372
147665,Vataman,4030,GJ,Gujarat,101,IN,India,22.53,72.42,वतामन,city,,,0.0,Asia/Kolkata,Q2771843
134339,Vejalpur,4030,GJ,Gujarat,101,IN,India,22.69021,73.56299,वेजलपुर,city,,,121610.0,Asia/Kolkata,Q2558274
134349,Veraval,4030,GJ,Gujarat,101,IN,India,20.9077,70.36786,वेरावल,adm2,,,153696.0,Asia/Kolkata,Q518791
134357,Vijapur,4030,GJ,Gujarat,101,IN,India,23.5623,72.74848,विजापुर,city,,,35118.0,Asia/Kolkata,Q2234286
142144,Vinchhiya,4030,GJ,Gujarat,101,IN,India,22.21027,71.37967,विंछिया,city,,,12355.0,Asia/Kolkata,Q2773382
147666,Viramgam,4030,GJ,Gujarat,101,IN,India,23.12,72.03,विरामगाम,city,,,55821.0,Asia/Kolkata,Q2451172
134365,Virpur,4030,GJ,Gujarat,101,IN,India,23.1892,73.47987,वीरपुर,city,,,10238.0,Asia/Kolkata,Q2773235
134387,Visavadar,4030,GJ,Gujarat,101,IN,India,21.33954,70.74966,विसावदर,city,,,19515.0,Asia/Kolkata,Q2452720
134371,Visnagar,4030,GJ,Gujarat,101,IN,India,23.69855,72.5521,विसनगर,city,,,76753.0,Asia/Kolkata,Q2452712
134378,Vyara,4030,GJ,Gujarat,101,IN,India,21.11079,73.39365,व्यारा,city,,,39789.0,Asia/Kolkata,Q1964842
142145,Wadhai,4030,GJ,Gujarat,101,IN,India,20.76666667,73.48333333,वधाई,city,,,6715.0,Asia/Kolkata,Q2771789
142146,Wadhwan,4030,GJ,Gujarat,101,IN,India,22.7,71.68333333,वधावन,city,,,,Asia/Kolkata,Q1023682
134389,Waghai,4030,GJ,Gujarat,101,IN,India,20.77048,73.50074,वाघई,city,,,6715.0,Asia/Kolkata,Q2719142
134416,Wankaner,4030,GJ,Gujarat,101,IN,India,22.61198,70.94379,वांकानेर,city,,,47814.0,Asia/Kolkata,Q2006496
57675,Ambala,4007,HR,Haryana,101,IN,India,30.32854,76.9422,अंबाला,city,,,195153.0,Asia/Kolkata,Q2086226
134464,Asandh,4007,HR,Haryana,101,IN,India,29.52119,76.60552,असंध,city,,,27125.0,Asia/Kolkata,Q1935271
57756,Ateli Mandi,4007,HR,Haryana,101,IN,India,28.1008,76.2598,अटेली मंडी,city,,,7619.0,Asia/Kolkata,Q590003
57810,Bahadurgarh,4007,HR,Haryana,101,IN,India,28.69287,76.93555,बहादुरगढ़,city,,,170767.0,Asia/Kolkata,Q633471
57861,Bara Uchana,4007,HR,Haryana,101,IN,India,29.46747,76.17798,बड़ा उचाना,city,,,16815.0,Asia/Kolkata,Q2557959
57890,Barwala,4007,HR,Haryana,101,IN,India,29.36747,75.90809,बरवाला,city,,,43384.0,Asia/Kolkata,Q712480
58152,Bawal,4007,HR,Haryana,101,IN,India,28.07184,76.58312,बावल,city,,,16776.0,Asia/Kolkata,Q759164
57937,Beri Khas,4007,HR,Haryana,101,IN,India,28.70146,76.57708,बेरी खास,city,,,16727.0,Asia/Kolkata,Q2234154
57988,Bhiwani,4007,HR,Haryana,101,IN,India,28.75,76.16667,भिवानी,city,,,1634445.0,Asia/Kolkata,Q1852857
58054,Bilaspur,4007,HR,Haryana,101,IN,India,30.3045,77.30424,बिलासपुर,city,,,11733.0,Asia/Kolkata,Q3639927
58164,Buriya,4007,HR,Haryana,101,IN,India,30.15911,77.35814,बुरिया,city,,,10903.0,Asia/Kolkata,Q862612
58200,Charkhi Dadri,4007,HR,Haryana,101,IN,India,28.59166,76.27161,चरखी दादरी,adm2,,,56337.0,Asia/Kolkata,Q888946
131528,Chhachhrauli,4007,HR,Haryana,101,IN,India,30.24492,77.36027,छछरौली,city,,,10751.0,Asia/Kolkata,Q885359
131638,Dabwali,4007,HR,Haryana,101,IN,India,29.94906,74.73832,डबवाली,city,,,62113.0,Asia/Kolkata,Q1190879
131757,Dharuhera,4007,HR,Haryana,101,IN,India,28.20553,76.79691,धारूहेड़ा,city,,,30344.0,Asia/Kolkata,Q1258723
131831,Ellenabad,4007,HR,Haryana,101,IN,India,29.45282,74.66122,ऐलनाबाद,city,,,37680.0,Asia/Kolkata,Q1524663
131853,Faridabad,4007,HR,Haryana,101,IN,India,28.41124,77.31316,फरीदाबाद,adm2,,,1404653.0,Asia/Kolkata,Q200663
131856,Farrukhnagar,4007,HR,Haryana,101,IN,India,28.44745,76.82391,फर्रुखनगर,city,,,13513.0,Asia/Kolkata,Q1525392
131872,Fatehabad,4007,HR,Haryana,101,IN,India,29.51525,75.45554,फतेहाबाद,city,,,70777.0,Asia/Kolkata,Q1320989
131882,Firozpur Jhirka,4007,HR,Haryana,101,IN,India,27.78853,76.94496,फिरोजपुर झिरका,city,,,24750.0,Asia/Kolkata,Q1523132
131937,Gharaunda,4007,HR,Haryana,101,IN,India,29.53692,76.97142,घरौंदा,city,,,37816.0,Asia/Kolkata,Q1708340
131968,Gohana,4007,HR,Haryana,101,IN,India,29.13777,76.70247,गोहाना,city,,,65708.0,Asia/Kolkata,Q12424844
131991,Gorakhpur,4007,HR,Haryana,101,IN,India,29.44768,75.67206,गोरखपुर,city,,,1324570.0,Asia/Kolkata,Q734556
132032,Gurgaon,4007,HR,Haryana,101,IN,India,28.43891,77.00592,गुडगाँव,adm2,,,876824.0,Asia/Kolkata,Q1815766
132141,Hansi,4007,HR,Haryana,101,IN,India,29.10239,75.96253,हांसी,city,,,86770.0,Asia/Kolkata,Q1707791
132084,Hasanpur,4007,HR,Haryana,101,IN,India,27.96944,77.49544,हसनपुर,city,,,11569.0,Asia/Kolkata,Q1707447
132106,Hisar,4007,HR,Haryana,101,IN,India,29.15394,75.72294,हिसार,city,,,307024.0,Asia/Kolkata,Q1772825
132109,Hodal,4007,HR,Haryana,101,IN,India,27.89196,77.36744,होडल,city,,,50143.0,Asia/Kolkata,Q616583
132163,Inda Chhoi,4007,HR,Haryana,101,IN,India,29.64042,75.79041,इंडा छोई,city,,,7000.0,Asia/Kolkata,Q208097
132167,Indri,4007,HR,Haryana,101,IN,India,29.87999,77.05972,इंद्री,city,,,17487.0,Asia/Kolkata,Q1619362
132194,Jagadhri,4007,HR,Haryana,101,IN,India,30.16719,77.30367,जगाधरी,city,,,124894.0,Asia/Kolkata,Q2016879
132305,Jakhal,4007,HR,Haryana,101,IN,India,29.79627,75.82392,जाखल,city,,,7411.0,Asia/Kolkata,Q2016886
132266,Jhajjar,4007,HR,Haryana,101,IN,India,28.6063,76.6565,झज्जर,city,,,48424.0,Asia/Kolkata,Q2304016
132315,Jind,4007,HR,Haryana,101,IN,India,29.31577,76.31502,जींद,city,,,167592.0,Asia/Kolkata,Q1807935
132340,Kaithal,4007,HR,Haryana,101,IN,India,29.80153,76.39959,कैथल,city,,,144915.0,Asia/Kolkata,Q1949385
132360,Kalanaur,4007,HR,Haryana,101,IN,India,28.82823,76.3955,कालानौर,city,,,23319.0,Asia/Kolkata,Q368353
132688,Kalanwali,4007,HR,Haryana,101,IN,India,29.83573,74.9717,कालांवाली,city,,,27355.0,Asia/Kolkata,Q2452176
132389,Kanina Khas,4007,HR,Haryana,101,IN,India,28.33093,76.31099,कनीना खास,city,,,12989.0,Asia/Kolkata,Q1320976
132405,Karnal,4007,HR,Haryana,101,IN,India,29.66667,76.83333,करनाल,city,,,302140.0,Asia/Kolkata,Q607915
132478,Kharkhauda,4007,HR,Haryana,101,IN,India,28.8787,76.91069,खरखौदा,city,,,25051.0,Asia/Kolkata,Q2120387
132493,Kheri Sampla,4007,HR,Haryana,101,IN,India,28.7781,76.7756,खेरी सांपला,city,,,10891.0,Asia/Kolkata,Q1755447
132662,Kurukshetra,4007,HR,Haryana,101,IN,India,30.0,76.75,कुरुक्षेत्र,city,,,964655.0,Asia/Kolkata,Q980118
132789,Ladwa,4007,HR,Haryana,101,IN,India,29.9935,77.04563,लाडवा,city,,,28887.0,Asia/Kolkata,Q2235937
132772,Loharu,4007,HR,Haryana,101,IN,India,28.42993,75.80779,लोहारू,city,,,13937.0,Asia/Kolkata,Q2240876
132825,Maham,4007,HR,Haryana,101,IN,India,28.96912,76.29495,माहम,city,,,20484.0,Asia/Kolkata,Q429091
132832,Mahendragarh,4007,HR,Haryana,101,IN,India,28.25,76.16667,महेंद्रगढ़,city,,,922088.0,Asia/Kolkata,Q684019
132892,Mandholi Kalan,4007,HR,Haryana,101,IN,India,28.7085,75.68296,मंढोली कलां,city,,,4500.0,Asia/Kolkata,Q2249065
133047,Mustafabad,4007,HR,Haryana,101,IN,India,30.2022,77.14873,मुस्तफाबाद,city,,,9042.0,Asia/Kolkata,Q3868703
133176,Narayangarh,4007,HR,Haryana,101,IN,India,30.47798,77.12804,नारायणगढ़,city,,,22832.0,Asia/Kolkata,Q2734986
